氏名,ふりがな,住所,緯度,経度,年齢,性別,前職業界コード,生年月日,電話番号,通勤手段,希望通勤時間,予想事業所受取時給,予想支払時給,希望勤務時間
井上 崇士,いのうえ たかし,兵庫県神戸市東灘区深江北町3-4-402,43.06466,141.34683,29歳,男,J,1993-09-07,070-2981-7576,電車,80,1950,2900,5
大井 由美子,おおい ゆみこ,東京都台東区上野3-3-4バンベール812,40.82423,140.74392,29歳,女,D,1993-06-28,070-9629-1685,自転車,20,1150,2700,5
西野 憲生,にしの のりお,宮城県仙台市太白区郡山2-2-16,39.70353,141.15246,12歳,男,Q,2010-11-08,070-2659-9433,自転車,10,1900,2650,2
大川 笙子,おおかわ しょうこ,埼玉県戸田市美女木1-5-10バンベール212,38.26873,140.87183,22歳,女,D,2000-12-02,050-0438-3738,電車,130,1900,2300,9
本間 勇一郎,ほんま ゆういちろう,石川県金沢市西念2-1-7マンション408,39.71830,140.10261,100歳,男,E,1923-02-03,090-8313-5954,バス,100,1400,2100,2
鎌田 芳昭,かまた よしあき,東京都港区芝3-2-21,38.24041,140.36389,65歳,男,A,1957-11-04,050-9851-5319,バス,30,1200,2650,2
杉井 賢治,すぎい けんじ,千葉県市川市曽谷3-3-1201,37.75123,140.46717,96歳,男,E,1926-11-12,070-3936-3241,電車,100,1600,3000,5
伊藤 香織,いとう かおり,千葉県柏市明原3-1-13クレステージ208,36.34150,140.44638,94歳,女,C,1929-02-15,080-6231-3702,電車,50,1650,2750,1
吉田 愛子,よしだ あいこ,東京都台東区台東1-4-17,36.56542,139.88368,6歳,女,B,2016-11-08,090-4049-2509,自転車,70,1150,2700,8
伊達 明彦,だて あきひこ,東京都台東区蔵前3-1-21,36.39197,139.06095,45歳,男,L,1977-06-12,050-8466-6039,自転車,80,1100,2150,9
正木 恒,まさき ひさし,神奈川県大和市中央2-1-3,35.85675,139.64814,86歳,男,T,1937-03-08,050-9347-8347,電車,170,1650,2600,8
高橋 利幸,たかはし としゆき,北海道札幌市南区藤野三条2-1-10,35.60495,140.12334,48歳,男,M,1975-04-15,070-9383-0301,自転車,100,1050,2800,1
飯田 真理子,いいだ まりこ,東京都渋谷区千駄ヶ谷1-4-504,35.68995,139.69194,45歳,女,C,1977-08-06,080-1273-9158,バス,170,1100,2300,3
柳沼 淳,やぎぬま じゅん,北海道千歳市幸町3-3-7,35.44720,139.6424,78歳,男,L,1945-01-09,050-7470-2390,徒歩,130,1050,2350,1
亀井 千絵,かめい ちえ,東京都中野区本町3-1-9パストラル710,37.90289,139.02373,73歳,女,S,1949-10-04,050-0256-4488,電車,90,1650,2600,1
白須 健太,しらす けんた,福岡県福岡市早良区西新3-2-18,36.69532,137.21144,33歳,男,E,1990-04-17,050-4838-0750,自転車,120,1200,2750,9
工藤 一平,くどう いっぺい,東京都渋谷区恵比寿1-2-3,36.59475,136.62555,27歳,男,A,1996-02-18,080-1372-5695,電車,80,1900,2400,2
前田 淳志,まえだ あつし,東京都新宿区下落合2-4-22,36.06576,136.22111,78歳,男,F,1944-06-06,090-3937-2727,電車,70,1500,2900,7
岩田 利昭,いわた としあき,東京都中野区南台2-3-14,35.66356,138.56841,44歳,男,L,1978-07-23,070-7867-3874,電車,10,1250,2550,8
菅野 紘子,かんの ひろこ,広島県福山市霞町1-5-14,36.6516,138.18122,71歳,女,T,1951-12-13,050-1679-5637,徒歩,120,1400,2550,6
半澤 雅信,はんざわ まさのぶ,千葉県市川市北国分2-2-14,35.39178,136.72272,87歳,男,M,1935-09-29,050-8349-2504,徒歩,100,1950,2600,5
新井 竜二,あらい りゅうじ,東京都墨田区江東橋4-2-4,34.97646,138.38317,5歳,男,S,2017-06-13,090-2211-0070,徒歩,60,1650,2850,7
中山 和規,なかやま かずのり,大阪府大阪市淀川区西三国1-2-15ステイツ503,35.18091,136.90642,4歳,男,R,2019-05-01,050-5159-0968,バス,110,1300,2250,9
田中 弥生,たなか やよい,千葉県松戸市古ケ崎3-3-6,34.73021,136.50856,0歳,女,E,2022-08-20,090-2776-4626,徒歩,80,1300,2950,2
笹井 鮎子,ささい あゆこ,茨城県守谷市松前台4-2-7,35.00466,135.8684,70歳,女,C,1953-01-14,050-3936-6741,電車,180,1700,2700,8
竹中 一幸,たけなか かずゆき,神奈川県横浜市西区みなとみらい2-4-103,35.02198,135.75588,55歳,男,Q,1968-01-09,090-6568-5979,徒歩,120,1150,2100,7
松村 雄亮,まつむら ゆうすけ,東京都渋谷区神宮前1-5-15,34.68699,135.52751,100歳,男,O,1923-04-26,050-2328-8220,電車,150,2000,2200,4
酒井 俊行,さかい としゆき,神奈川県横浜市都筑区茅ケ崎東4-1-3ラジュール502,34.69134,135.18368,3歳,男,A,2019-12-27,070-5408-3271,徒歩,90,1200,2550,10
南田 伸夫,みなみだ のぶお,愛知県名古屋市中川区中島新町1-1-3パレ208,34.68589,135.83219,67歳,男,K,1956-03-14,090-0018-4293,自転車,50,1100,3000,6
平田 泰宏,ひらた やすひろ,東京都品川区東品川2-3-3アインス815,34.22671,135.16774,10歳,男,O,2012-11-08,090-3450-2390,自転車,140,1200,2050,3
平田 亮介,ひらた りょうすけ,兵庫県神戸市中央区山本通2-5-12セレッソコート514,35.50388,134.23849,2歳,男,L,2020-09-02,050-7190-9155,徒歩,40,1450,2700,2
市野 幸博,いちの ゆきひろ,岐阜県岐阜市黒野南2-2-5,35.47266,133.05047,87歳,男,H,1936-04-09,050-7534-1764,自転車,100,1700,2650,5
伊藤 康宏,いとう やすひろ,岐阜県瑞浪市一色町1-2-7,34.66169,133.93592,29歳,男,J,1993-10-06,050-8873-2820,徒歩,150,1750,2050,5
西村 弥生,にしむら やよい,大阪府大阪市中央区高麗橋4-3-8,34.39659,132.4599,79歳,女,L,1944-04-30,090-0917-5092,バス,20,1450,2950,2
稲川 郁夫,いながわ いくお,東京都足立区保木間2-1-11,34.18524,131.47116,61歳,男,T,1962-05-25,080-4560-5084,バス,100,1850,2600,6
村上 雅治,むらかみ まさはる,東京都江戸川区篠崎町2-3-9,34.06594,134.55984,80歳,男,F,1943-04-22,070-3219-5740,徒歩,170,1300,2200,6
江口 栄二,えぐち えいじ,大阪府八尾市中田1-3-6ファミリーコーポ811,34.34015,134.04384,35歳,男,Q,1987-10-22,070-1933-8544,徒歩,120,1600,2250,7
三澤 洋平,みさわ ようへい,東京都台東区浅草橋1-3-17ザ・パークハウス402,33.84188,132.76631,14歳,男,B,2008-11-11,090-5979-7921,電車,40,1150,2700,2
須山 直子,すやま なおこ,埼玉県八潮市緑町2-1-10グレーシィ709,33.55971,133.5312,16歳,女,E,2006-07-25,080-4497-3286,自転車,140,2000,2650,10
山本 健一,やまもと けんいち,奈良県奈良市学園大和町1-3-9,33.60665,130.41869,51歳,男,D,1972-05-29,050-5551-5613,自転車,150,1150,2550,3
川村 佳子,かわむら よしこ,福岡県北九州市戸畑区一枝4-2-10,33.24913,130.29835,28歳,女,O,1994-07-22,070-9118-7569,バス,150,1600,2100,3
寺尾 義明,てらお よしあき,愛知県小牧市中央2-3-1107,32.74439,129.87363,40歳,男,S,1982-12-25,090-3533-4763,電車,80,1550,2550,9
宮田 智,みやた とも,東京都千代田区外神田3-2-3,32.78945,130.74159,81歳,男,S,1942-01-10,050-8234-0544,自転車,130,1450,2650,3
北澤 佳史,きたざわ よしふみ,兵庫県神戸市垂水区狩口台1-3-9,33.2381,131.61262,71歳,男,K,1952-04-27,090-6868-6879,徒歩,130,1350,2500,4
小林 真,こばやし まこと,鳥取県米子市立町4-2-6,31.91198,131.4239,4歳,男,K,2019-02-07,050-8896-1305,電車,110,1300,2350,1
宇都宮 崇史,うつのみや たかし,東京都新宿区高田馬場2-1-6,31.56080,130.55839,6歳,男,P,2017-05-30,070-3095-5532,バス,10,1600,2400,3
並木 康之,なみき やすゆき,東京都中央区八丁堀3-4-18,26.21284,127.68191,98歳,男,I,1924-09-28,090-1628-2916,自転車,180,1450,2100,2
堤 香織,つつみ かおり,埼玉県入間市東町3-2-7コスモ506,34.97627,138.38366,55歳,女,C,1967-07-06,090-3118-4879,バス,120,1400,2950,4
北村 敦子,きたむら あつこ,鳥取県米子市西福原2-2-6プリメゾン711,35.18046,136.90681,23歳,女,D,2000-03-19,080-6373-2007,徒歩,30,1450,2200,5
中村 隆幸,なかむら たかゆき,兵庫県西宮市上甲子園3-2-701,34.73045,136.50849,71歳,男,M,1952-01-09,080-8738-8943,電車,160,1600,2700,5
川口 孝志,かわぐち たかし,東京都墨田区業平1-2-9サンマンション705,35.00447,135.86841,80歳,男,H,1942-11-25,080-0144-2651,電車,80,2000,2700,9
妹尾 悟,せのお さとる,東京都文京区大塚2-3-18,35.02112,135.75588,0歳,男,M,2023-05-19,080-7009-2661,バス,110,1200,2400,5
齋藤 聖子,さいとう せいこ,埼玉県志木市下宗岡1-4-11,34.6868,135.52796,67歳,女,R,1956-02-18,070-0347-1510,バス,70,1700,2050,2
大澤 あゆ美,おおさわ あゆみ,東京都杉並区和泉1-3-9,34.6912,135.18341,80歳,女,T,1942-10-31,070-4906-7208,徒歩,120,1400,2650,5
益子 剛,ましこ つよし,東京都足立区足立2-4-4エーベル415,34.68579,135.83277,57歳,男,P,1966-03-15,070-5944-5071,徒歩,140,1950,2600,4
下島 遼,しもじま りょう,神奈川県茅ヶ崎市東海岸北3-3-5,34.22663,135.16785,36歳,男,C,1986-08-24,080-5035-3711,自転車,150,1950,2700,8
里 正毅,さと まさき,東京都新宿区四谷2-2-22,35.50351,134.23855,34歳,男,O,1988-07-17,050-5302-6131,電車,70,1250,2900,5
森 優希,もり ゆき,福井県福井市御幸2-4-21レスタージュ715,35.47249,133.0508,18歳,男,R,2005-01-21,050-0414-2532,バス,180,1300,2450,6
入江 一也,いりえ かずや,大阪府大阪市天王寺区上汐3-3-14パークノヴァ514,34.66159,133.93566,47歳,男,P,1975-07-18,080-6493-0322,バス,140,1800,2900,2
冨岡 あけみ,とみおか あけみ,北海道小樽市奥沢3-5-708,34.39675,132.45974,21歳,女,N,2002-02-20,080-7573-4836,電車,100,1450,2800,1
有井 美夏,ありい みか,大阪府大阪市此花区西九条2-3-4,34.18561,131.47174,11歳,女,I,2011-12-19,080-9435-3368,電車,180,1050,2800,2
内田 雅史,うちだ まさし,大阪府大阪市中央区本町3-5-304,34.06568,134.55963,38歳,男,J,1985-04-22,050-0954-2886,徒歩,160,2000,2600,4
清水 悠子,しみず ゆうこ,福井県福井市西開発2-2-15,34.34030,134.04314,59歳,女,N,1963-08-15,080-6901-0185,自転車,90,1300,2700,6
川崎 博美,かわさき ひろみ,北海道札幌市南区南沢四条2-1-10,33.84112,132.76683,44歳,女,Q,1978-10-20,050-3394-4036,自転車,180,1950,2200,3
植山 ヒロミ,うえやま ひろみ,東京都西東京市芝久保町4-3-3,33.55992,133.53146,80歳,男,S,1943-03-10,050-2659-3102,バス,110,2000,2100,8
野中 紀明,のなか のりあき,宮城県仙台市太白区緑ケ丘2-1-404グランフェルティ814,33.60696,130.41888,28歳,男,B,1994-07-06,080-3319-3631,徒歩,140,1150,2750,2
笹川 渓,ささがわ けい,東京都昭島市朝日町1-1-1107ロイヤルシャトー506,33.24937,130.29835,97歳,女,C,1925-09-23,080-8815-3660,自転車,90,1150,2350,2
岡嶋 譲,おかじま ゆずる,千葉県市原市五井西3-2-6,32.74463,129.87325,40歳,男,O,1983-05-10,070-0808-6768,自転車,170,1650,2850,9
谷川 智哉,たにがわ ともや,愛知県蒲郡市三谷北通3-1-10,32.78975,130.74169,78歳,男,O,1945-01-24,070-1186-9785,自転車,20,1950,2250,3
小笠原 沙織,おがさわら さおり,宮城県柴田郡柴田町船岡東2-3-703レ・ジェイド804,33.23838,131.61242,61歳,女,J,1962-03-02,070-2657-2888,徒歩,60,1250,2150,8
池田 浩一,いけだ こういち,東京都府中市天神町3-3-5,31.91138,131.42362,8歳,男,R,2015-04-19,070-0580-9253,バス,130,1200,2450,6
千葉 正英,ちば まさ,福岡県宗像市自由ヶ丘2-2-3,31.56074,130.55867,3歳,男,A,2019-11-21,090-1171-8991,自転車,130,1050,2800,8
堤 ちひろ,つつみ ちひろ,埼玉県越谷市南越谷3-1-16,26.2121,127.68168,1歳,女,P,2022-05-02,080-1200-5271,バス,130,1800,2900,6
見上 拓人,みかみ たくと,千葉県習志野市津田沼4-1-8,34.9765,138.38389,73歳,男,P,1949-09-21,090-2540-2476,徒歩,110,1750,2200,1
小松 裕和,こまつ ひろかず,埼玉県さいたま市大宮区桜木町1-3-7,35.18039,136.90646,63歳,男,B,1960-05-20,070-3504-4257,自転車,120,1700,2300,1
竹本 智春,たけもと ちはる,沖縄県糸満市西崎町4-2-8,34.73037,136.50891,78歳,男,O,1944-07-06,070-3516-9388,電車,30,1950,3000,4
村松 賢一,むらまつ けんいち,広島県三原市宗郷1-5-21,35.00465,135.86812,27歳,男,A,1996-04-10,080-2120-6641,バス,180,1400,2100,10
進藤 修,しんどう おさむ,東京都荒川区町屋3-1-8,35.02136,135.75523,29歳,男,T,1994-02-27,080-2172-5929,徒歩,140,1800,2200,8
吉村 篤史,よしむら あつし,東京都新宿区西新宿1-5-9,34.6867,135.52799,31歳,男,I,1992-04-28,050-5121-4256,自転車,180,1200,2450,7
横山 裕子,よこやま ゆうこ,福井県福井市大宮1-5-502,34.69121,135.18326,95歳,その他・不明,M,1928-04-03,090-2144-8129,自転車,60,1800,3000,10
坂下 政雄,さかした まさお,埼玉県さいたま市浦和区岸町3-1-16,34.68518,135.83235,100歳,男,Q,1922-12-24,090-3257-1103,徒歩,10,1250,2950,9
垣内 優花,かきうち ゆうか,大阪府大阪市東住吉区湯里1-2-8,34.22693,135.16738,50歳,女,E,1972-08-02,050-7119-5422,バス,170,1900,2100,7
奥村 俊介,おくむら しゅんすけ,鳥取県米子市車尾1-1-7,35.50342,134.23840,51歳,男,R,1971-11-18,050-0583-5063,バス,80,1500,2600,8
古谷 仁史,ふるや ひとし,東京都葛飾区青戸3-1-10,35.47253,133.05073,97歳,男,J,1925-09-27,050-7453-7966,電車,20,1500,2100,9
浦野 大,うらの だい,埼玉県さいたま市南区内谷1-2-20,34.66117,133.93548,93歳,男,F,1929-06-29,070-5928-8657,バス,70,1350,2850,4
木下 忠弘,きのした ただひろ,東京都墨田区東向島3-2-21グリーンハイツ208,34.39649,132.45917,34歳,その他・不明,L,1988-07-15,070-1632-8800,電車,40,2000,3000,3
高橋 夏,たかはし なつ,神奈川県相模原市南区南台2-1-8,34.18562,131.47135,28歳,女,Q,1994-07-11,050-2055-8987,電車,100,1450,2700,2
伊藤 一真,いとう かずま,千葉県佐倉市ユーカリが丘2-1-6,34.06510,134.55929,86歳,男,J,1937-04-06,070-7323-6860,自転車,10,1950,2200,8
原 恭子,はら きょうこ,千葉県市川市南八幡2-4-3,34.34043,134.04323,51歳,女,T,1972-05-03,090-9687-9594,徒歩,40,1050,2700,10
古賀 薫子,こが かおるこ,北海道札幌市西区発寒六条3-3-19グランフェルティ807,33.84188,132.76698,11歳,女,Q,2011-12-22,080-9784-0692,電車,150,1950,2750,5
浦川 博之,うらかわ ひろゆき,北海道札幌市北区北十三条西1-5-903,33.55925,133.53119,75歳,男,C,1948-01-20,090-6986-9867,徒歩,10,1700,2850,6
岩丸 敏文,いわまる としふみ,東京都豊島区南池袋4-1-7アインス501,33.6064,130.41864,52歳,その他・不明,I,1970-08-26,090-6315-5942,徒歩,40,1900,2700,9
丸島 真大,まるしま まさひろ,大阪府大阪市北区西天満4-1-9,33.2495,130.29829,8歳,男,D,2014-09-24,080-6073-3652,徒歩,130,1250,2450,9
松本 彩,まつもと あや,東京都豊島区巣鴨3-4-8,32.74480,129.8735,9歳,その他・不明,F,2014-04-02,050-3349-5928,徒歩,70,1500,3000,10
菅原 史子,すがわら ふみこ,大阪府大阪市西区北堀江3-5-15,32.78950,130.74166,92歳,女,H,1931-05-26,090-8920-9090,電車,70,1900,2800,3
前川 一夫,まえかわ かずお,東京都港区港南1-5-18,33.23894,131.61298,82歳,その他・不明,P,1941-01-27,090-0917-8358,電車,70,1050,2400,2
田村 麻依子,たむら まいこ,埼玉県さいたま市大宮区桜木町4-2-3,31.91155,131.42316,80歳,女,D,1942-09-30,070-2728-1718,徒歩,120,1200,2800,5
荒井 敦,あらい あつし,東京都港区六本木3-1-14シャトード501,31.56023,130.5588,20歳,その他・不明,O,2003-01-19,050-5765-9773,電車,180,2000,2850,2
矢部 由美,やべ ゆみ,東京都昭島市昭和町1-1-8,26.21235,127.68189,36歳,女,T,1986-12-18,050-6706-2672,自転車,80,1050,2050,9
原 瑛子,はら えいこ,東京都港区高輪1-1-3,34.97685,138.38367,93歳,女,L,1929-08-23,090-7178-6614,自転車,70,1250,2950,1
武富 康博,たけとみ やすひろ,愛知県名古屋市東区三の丸1-2-22,35.18025,136.90696,16歳,男,E,2007-03-26,090-2836-9680,自転車,170,1050,2750,2
塩山 優介,しおやま ゆうすけ,神奈川県横浜市鶴見区鶴見中央3-1-7,34.73056,136.50830,95歳,男,R,1927-06-09,080-8836-8368,徒歩,60,1050,2250,10
岡田 竜,おかだ たつ,兵庫県神戸市中央区雲井通3-2-12,35.00437,135.86852,92歳,男,M,1930-11-19,070-9679-8799,徒歩,120,1300,2750,9
松井 史恵,まつい ふみえ,東京都港区虎ノ門1-3-107,35.02144,135.75596,13歳,女,D,2009-12-21,050-9668-8912,徒歩,10,1750,2750,6
朝田 友美,あさだ ゆみ,福岡県宗像市田久1-2-4,34.68616,135.52765,24歳,女,F,1998-12-28,070-4843-5904,自転車,50,1750,2050,1
堀口 京子,ほりぐち きょうこ,愛知県名古屋市中村区上石川町2-2-21セントラル102,34.69117,135.1834,75歳,女,P,1947-08-04,090-7907-3995,徒歩,20,1200,2450,10
田口 典子,たぐち のりこ,神奈川県足柄下郡湯河原町土肥2-3-5,34.68594,135.8323,94歳,女,L,1928-07-24,090-9832-3720,自転車,130,1900,2750,6
佐々木 聡子,ささき さとこ,東京都渋谷区恵比寿4-1-4グランドヒルズ411,34.22694,135.16711,71歳,女,Q,1951-07-05,090-5303-7327,電車,120,1400,2050,2
竹村 ユカリ,たけむら ゆかり,愛知県名古屋市中区栄1-3-10,35.50361,134.23896,39歳,女,S,1984-03-30,070-6735-6604,自転車,130,2000,3000,3
林 聡,はやし あきら,愛知県名古屋市北区上飯田北町2-1-8グランドヒルズ202,35.47216,133.05013,66歳,男,Q,1956-10-03,050-9244-2319,電車,30,1900,2750,3
飯村 藍,いいむら あい,千葉県千葉市緑区あすみが丘1-3-21,34.66191,133.93587,59歳,その他・不明,E,1963-08-02,050-4945-0435,自転車,140,2000,2650,1
大泉 優花,おおいずみ ゆうか,東京都港区南麻布3-1-5ゴールデングリタ109,34.39696,132.45974,91歳,女,A,1931-10-08,080-4213-9449,徒歩,10,1200,2550,2
杉山 広之,すぎやま ひろゆき,福岡県福岡市博多区博多駅前4-3-6,34.18567,131.471100,52歳,男,D,1971-05-21,050-1107-8053,バス,80,1450,2400,5
武田 紗彩,たけだ さあや,東京都文京区小日向2-1-6,34.06581,134.55979,15歳,女,O,2008-02-18,070-2903-3826,自転車,120,1650,2850,8
上野 亨,うえの とおる,大阪府大阪市中央区南船場2-2-3パレロワイヤル811,34.34027,134.04324,30歳,男,Q,1993-04-07,090-9996-7095,自転車,110,1750,2650,8
金井 修一,かない しゅういち,大阪府大阪市東淀川区豊新1-3-10,33.84120,132.76651,96歳,その他・不明,D,1926-06-24,090-7479-7023,自転車,20,1450,2350,10
不破 正樹,ふわ まさき,東京都東村山市多摩湖町3-3-9,33.55925,133.53182,90歳,男,F,1932-10-31,070-0189-4254,バス,50,1550,2400,4
出町 義之,でまち よしゆき,東京都港区新橋2-3-6,33.60631,130.41873,8歳,男,D,2015-03-04,090-9737-5663,徒歩,30,1900,2150,5
広瀬 正人,ひろせ まさと,福岡県福岡市中央区平尾1-3-10,33.24933,130.29898,76歳,男,M,1947-01-23,070-8392-8317,徒歩,80,1600,2850,9
佐々木 暁子,ささき あきこ,秋田県秋田市中通3-2-11,32.74496,129.87365,28歳,女,B,1995-02-13,050-9823-1931,徒歩,180,1900,2250,10
小林 礼美,こばやし ひろみ,東京都文京区千石2-1-6,32.78967,130.74163,50歳,女,H,1972-12-24,070-8291-2931,徒歩,120,1750,2050,10
高橋 瞳,たかはし ひとみ,新潟県上越市東本町1-3-6,33.23823,131.61267,55歳,女,E,1968-01-08,050-4656-0650,バス,170,1600,2550,1
大岡 義和,おおおか よしかず,東京都新宿区高田馬場2-4-14,31.9117,131.42314,91歳,その他・不明,L,1931-06-23,080-6659-3729,電車,10,1900,2700,8
植竹 大輝,うえたけ たいき,東京都荒川区東日暮里2-3-7,31.56088,130.55835,50歳,その他・不明,G,1972-10-28,080-1609-5410,自転車,170,1250,2050,2
中西 良史,なかにし よしふみ,東京都中央区築地1-3-8,26.21218,127.68187,51歳,男,T,1971-07-04,090-9393-9484,徒歩,30,1700,2600,5
平井 和子,ひらい かずこ,千葉県市川市中山3-4-22,43.06434,141.34660,48歳,女,N,1974-09-29,070-7661-8607,徒歩,100,1950,2600,9
阪本 富美子,さかもと ふみこ,大阪府守口市大久保町2-3-16,40.82461,140.74394,16歳,その他・不明,H,2007-05-26,050-8004-0106,バス,50,1700,2850,4
加地 昌弘,かじ まさひろ,兵庫県明石市朝霧南町3-3-3,39.70312,141.15234,8歳,男,D,2014-07-13,080-6060-6434,自転車,170,1750,2300,3
嶋根 知沙,しまね ちさ,東京都大田区蒲田3-3-10,38.26847,140.87176,88歳,女,N,1935-01-17,070-6393-7370,自転車,80,1250,2300,1
高杉 隆司,たかすぎ りゅうじ,熊本県熊本市東区東野2-4-20ローレルスクエア708,39.71823,140.10271,36歳,男,N,1986-10-24,090-4705-0740,電車,20,1700,2850,2
岡田 律子,おかだ りつこ,神奈川県川崎市宮前区東有馬1-3-18プラウドタワー116,38.24058,140.36319,94歳,女,M,1929-06-05,050-1389-7584,電車,140,2000,3000,8
天野 幸二,あまの こうじ,山梨県上野原市コモアしおつ2-1-504,37.75149,140.46769,76歳,男,O,1947-05-27,080-8987-8657,バス,20,1250,2400,2
中尾 貴之,なかお たかゆき,神奈川県相模原市南区相模大野1-4-13,36.3414,140.44679,68歳,男,D,1954-10-17,080-3862-2962,バス,20,1650,2300,6
堀本 正美,ほりもと まさみ,石川県金沢市松村3-1-5,36.56550,139.8836,42歳,男,J,1980-11-04,050-7510-4661,自転車,60,1750,2450,6
石原 千登勢,いしはら ちとせ,東京都八王子市元本郷町3-1-12,36.39112,139.06052,90歳,女,B,1932-10-29,080-1392-7011,自転車,110,1050,2950,5
西川 優子,にしかわ ゆうこ,群馬県前橋市朝倉町3-1-9,35.85638,139.64813,31歳,女,M,1992-05-15,080-1630-9519,電車,40,1450,2950,1
前原 耕太,まえはら こうた,岩手県盛岡市山岸2-3-1205エーベル208,35.60487,140.12347,7歳,男,J,2016-01-14,050-8035-1190,徒歩,90,1400,2150,7
高沼 たけし,たかぬま たけし,東京都渋谷区恵比寿4-3-8,35.6895,139.69164,14歳,男,K,2009-05-03,070-1762-9694,電車,140,2000,2600,6
久保 涼子,くぼ りょうこ,北海道札幌市西区二十四軒一条2-3-12,35.44754,139.64217,68歳,女,J,1955-04-10,050-2438-0614,徒歩,140,1800,2500,1
加藤 信幸,かとう のぶゆき,神奈川県横浜市泉区和泉中央南1-5-17,37.90237,139.0238,74歳,男,D,1948-12-31,090-9092-5627,電車,120,1400,2550,4
鈴木 宗大,すずき むねひろ,北海道札幌市中央区大通東3-1-6,36.6956,137.21140,38歳,男,F,1984-07-10,080-2118-4075,徒歩,140,1250,2250,9
藤沢 愛,ふじさわ あい,兵庫県神戸市長田区若松町2-1-4ルネグラン302,36.59464,136.62574,11歳,女,L,2011-07-11,080-6828-7728,バス,30,1300,2800,6
竹中 一彦,たけなか かずひこ,大阪府藤井寺市野中2-1-8,36.0654,136.22113,62歳,男,O,1960-07-07,080-9430-8133,徒歩,60,1250,2900,2
恩田 枝里子,おんだ えりこ,東京都渋谷区神宮前1-1-1007,35.66390,138.56872,1歳,女,P,2021-06-07,090-8807-2848,自転車,80,1150,2550,8
渡邉 玉枝,わたなべ たまえ,高知県高知市比島町2-3-10メロディーハイム410,36.65114,138.18177,94歳,女,I,1928-07-19,090-6090-5625,自転車,110,1150,2400,5
出田 和幸,いでた かずゆき,愛知県半田市平井町2-5-18,35.39138,136.72237,65歳,その他・不明,G,1957-12-25,090-2800-7260,バス,90,1650,2750,8
石橋 俊英,いしばし としひで,東京都豊島区長崎3-1-6,34.97610,138.38347,81歳,男,K,1942-01-24,090-7987-1085,バス,170,1150,3000,5
今井 里紗,いまい りさ,東京都足立区古千谷本町3-3-4,35.18039,136.90657,37歳,その他・不明,B,1986-03-21,090-8233-3082,徒歩,140,1250,2250,9
和田 淳,わだ じゅん,千葉県松戸市五香西2-2-3ワコーレ808,34.73061,136.50811,44歳,男,N,1979-02-18,090-7564-2775,徒歩,110,1700,2050,8
能登 悠里子,のと ゆりこ,広島県三原市宗郷1-5-21,35.00473,135.86846,58歳,女,H,1965-02-06,070-0124-2306,バス,100,1100,2400,7
塩谷 麻衣子,しおや まいこ,福岡県福岡市東区多の津3-4-1001,35.02167,135.75515,31歳,女,F,1992-02-29,080-8413-5430,徒歩,170,1950,2550,10
小野 勝敏,おの かつとし,山梨県富士吉田市中曽根3-1-6,34.68691,135.52720,21歳,その他・不明,S,2002-05-03,070-0597-2729,電車,20,1150,2050,9
後藤 夏紀,ごとう なつき,東京都千代田区麹町3-1-7グリーンエクセル807,34.69198,135.18326,53歳,女,I,1969-11-11,080-5808-2807,徒歩,150,1650,2150,2
田辺 一臣,たなべ かずおみ,北海道札幌市豊平区西岡二条4-3-3,34.68524,135.83269,59歳,男,J,1963-09-20,080-5283-7038,電車,30,1200,2700,4
三浦 尚吾,みうら しょうご,東京都杉並区永福3-2-10,34.22650,135.16732,93歳,男,R,1929-09-29,070-2654-9138,電車,140,1050,2650,6
町野 昌美,まちの まさみ,愛知県常滑市保示町2-5-9,35.50348,134.23871,81歳,女,L,1941-07-21,050-2796-5916,自転車,120,1300,3000,1
西條 聡子,さいじょう さとこ,東京都千代田区飯田橋3-3-22フローラ409,35.47286,133.05012,67歳,女,Q,1955-07-24,080-2256-7316,電車,130,1700,2700,5
佐藤 健太郎,さとう けんたろう,東京都港区港南3-2-10アーク805,34.66186,133.93581,22歳,男,Q,2000-06-12,080-4584-6413,バス,40,1200,2350,6
佐藤 信行,さとう のぶゆき,新潟県見附市本町1-2-15,34.39662,132.45999,65歳,男,E,1958-01-08,080-0775-4106,電車,160,1450,2750,7
杉本 有司,すぎもと ゆうじ,千葉県千葉市中央区祐光1-2-10,34.18589,131.47130,48歳,男,Q,1974-12-11,090-4640-5199,バス,160,1300,2250,8
岩崎 典正,いわさき のりまさ,静岡県焼津市八楠3-2-7,34.06592,134.55948,29歳,男,P,1994-04-21,070-2085-5737,自転車,150,1600,2600,8
工藤 圭子,くどう けいこ,北海道北斗市追分1-2-19,34.34074,134.04344,64歳,女,B,1958-10-04,070-6394-4467,徒歩,30,1800,2250,2
今野 友美,こんの ゆみ,大阪府大阪市西区新町2-4-18,33.84197,132.76654,73歳,女,I,1950-05-31,050-1126-5376,バス,80,2000,2950,3
豊崎 和貴,とよさき かずき,神奈川県川崎市川崎区浜町1-3-7パレ108,33.55986,133.53168,50歳,男,T,1972-11-05,070-5725-7883,バス,130,2000,2800,7
多賀 京子,たが きょうこ,東京都町田市小川2-4-19,33.60649,130.41817,95歳,女,P,1927-08-30,080-4164-9103,自転車,30,1750,2950,9
山本 大樹,やまもと たいき,神奈川県横浜市都筑区荏田南2-1-13,33.24996,130.29851,49歳,男,A,1973-09-13,050-3192-8062,バス,80,1500,2600,2
堀内 雅明,ほりうち まさあき,静岡県榛原郡吉田町神戸111,32.74450,129.87354,42歳,男,A,1981-02-05,070-2497-2559,自転車,30,1450,2300,9
堀田 智,ほった とも,東京都世田谷区砧2-1-7デュアル511,32.78942,130.74133,7歳,男,F,2015-11-30,050-4270-2443,電車,80,2000,2200,8
増川 由美子,ますかわ ゆみこ,福岡県北九州市八幡西区黒崎1-2-8レジオン602,33.23831,131.61212,15歳,女,R,2008-04-17,050-7792-3497,自転車,50,1250,2450,10
山下 京子,やました きょうこ,神奈川県相模原市南区上鶴間本町2-4-18,31.91173,131.42347,12歳,女,G,2010-08-15,050-0537-8513,自転車,130,1400,2450,2
朝倉 亮介,あさくら りょうすけ,千葉県松戸市古ケ崎2-1-11,31.56031,130.55876,31歳,男,E,1991-08-15,050-9565-7678,自転車,150,1100,2050,2
加藤 幸代,かとう ゆきよ,東京都新宿区西新宿3-2-3サングレート107,26.21225,127.6814,14歳,女,J,2008-09-16,050-1789-4982,バス,10,1050,2150,5
中西 朋子,なかにし ともこ,愛知県名古屋市中区大須2-3-4ニューライフ306,34.97649,138.38356,64歳,女,A,1958-09-18,070-8002-1613,電車,150,1700,2550,3
後藤 いづみ,ごとう いづみ,北海道札幌市中央区南七条西3-4-9,35.18028,136.9066,7歳,女,Q,2015-11-27,050-1287-3132,自転車,160,1750,2850,6
内海 正文,うつみ まさふみ,北海道札幌市手稲区西宮の沢四条3-1-109,34.73059,136.50897,57歳,男,T,1965-08-30,070-6169-7556,電車,40,1800,2700,2
渡辺 ともこ,わたなべ ともこ,千葉県市原市北国分寺台1-4-9,35.00485,135.86818,7歳,女,O,2015-07-08,070-4845-5912,電車,30,1500,2250,8
和田 真由子,わだ まゆこ,三重県鈴鹿市道伯3-3-8ルネ209,35.0213,135.75551,19歳,女,R,2003-09-13,070-9762-7392,徒歩,30,1550,2150,2
中山 千佳,なかやま ちか,愛知県清須市新清洲3-3-18,34.68676,135.52794,40歳,女,D,1982-08-26,070-3828-0837,バス,70,1200,2150,6
徳本 公明,とくもと こうめい,東京都台東区台東1-3-6,34.69184,135.18378,57歳,男,N,1965-09-24,070-7994-2694,電車,80,1200,2600,8
柴田 里美,しばた さとみ,静岡県静岡市清水区蒲原4-2-6,34.68543,135.83287,41歳,女,K,1982-05-02,080-0632-5628,徒歩,30,1200,2050,9
村上 友美,むらかみ ゆみ,北海道札幌市中央区南八条西2-5-7,34.22641,135.16763,7歳,女,N,2016-04-30,090-7879-0293,バス,150,2000,2400,2
山之内 治彦,やまのうち はるひこ,東京都足立区栗原1-2-309リベール808,35.50322,134.23855,48歳,男,B,1974-08-08,070-9102-5927,徒歩,60,1950,2400,7
荒川 直輝,あらかわ なおき,東京都国立市東2-3-808,35.47244,133.0501,28歳,男,E,1994-08-05,070-5465-3848,電車,20,1350,2950,5
小野 雅嗣,おの まさし,東京都中野区中野3-1-7,34.66143,133.93545,94歳,男,J,1929-05-14,050-3698-8961,電車,170,1100,2100,2
柳沢 えり,やなぎさわ えり,東京都調布市深大寺元町2-5-506ハーティネス807,34.39645,132.45924,40歳,女,L,1982-09-25,070-6422-4291,自転車,170,1250,2700,10
川西 紀男,かわにし のりお,鹿児島県鹿児島市東坂元3-5-904,34.18596,131.4717,32歳,男,B,1991-03-13,050-8320-7055,バス,80,1200,2900,7
佐々木 薫,ささき かおる,東京都豊島区西池袋1-5-1201,34.0653,134.55980,78歳,男,P,1944-08-29,050-3789-1208,バス,20,1700,2800,3
小島 浩子,こじま ひろこ,宮城県仙台市泉区向陽台2-4-16クレアヒルズ216,34.34089,134.0434,5歳,女,E,2018-01-31,050-4629-1963,バス,20,1250,2500,8
金子 正明,かねこ まさあき,埼玉県さいたま市浦和区上木崎2-2-16,33.84168,132.76688,49歳,男,R,1974-01-05,080-4861-7453,徒歩,70,1200,2700,7
伊藤 正貴,いとう まさたか,東京都墨田区墨田2-2-19,33.55927,133.53148,21歳,男,M,2001-07-30,090-2058-1443,自転車,100,1200,2500,3
水谷 雄太,みずたに ゆうた,大阪府大阪市中央区南船場1-3-10セザール307,33.60663,130.4182,75歳,男,E,1948-02-07,070-5013-1492,バス,20,1400,3000,4
吉永 健,よしなが けん,東京都台東区台東3-5-11,33.24972,130.29854,48歳,男,F,1975-04-16,050-3704-3180,バス,80,1950,2800,2
園田 清一,そのだ せいいち,東京都渋谷区広尾2-2-6,32.74431,129.87372,67歳,男,R,1955-06-11,070-9030-0664,自転車,80,1100,2100,6
竹内 誉,たけうち たかし,東京都杉並区高円寺南1-1-10,32.78982,130.74119,41歳,男,R,1982-05-05,080-1275-8232,電車,50,1200,2850,6
志賀 尚,しが なお,東京都文京区小石川2-3-8,33.23874,131.61270,4歳,男,G,2018-11-16,090-2033-7775,バス,10,1350,2150,4
新井 友則,あらい とものり,埼玉県越谷市南越谷3-4-16,31.91152,131.42397,0歳,男,G,2023-02-06,080-5321-1275,徒歩,10,1550,2800,1
渡辺 祐紀,わたなべ ゆうき,東京都北区東十条2-1-8,31.56082,130.55864,57歳,男,C,1966-01-08,050-9489-1942,自転車,30,1900,2900,3
重光 英恵,しげみつ はなえ,広島県福山市手城町3-1-3ドリームマンション216,26.2125,127.68198,91歳,女,I,1932-05-11,070-5286-8228,徒歩,110,1250,2050,9
高田 美奈子,たかだ みなこ,神奈川県川崎市川崎区小田2-4-7,34.97610,138.38374,46歳,女,A,1976-11-02,050-7426-3571,自転車,130,1900,2650,8
白戸 正寿,しらと まさとし,長野県飯田市知久町2-2-8,35.18034,136.90619,96歳,男,P,1926-07-13,090-0504-7985,徒歩,20,1550,2500,9
北川 彰,きたがわ あきら,岐阜県多治見市平野町3-1-9,34.73050,136.5087,70歳,男,Q,1952-08-28,070-4527-1440,電車,160,1250,2450,1
中村 静枝,なかむら しずえ,東京都港区港南1-3-8,35.00479,135.86866,79歳,女,Q,1943-06-24,090-9959-5383,徒歩,120,1300,2800,8
澤 弘史,さわ ひろふみ,東京都世田谷区等々力4-3-7,35.02188,135.75530,43歳,男,E,1979-12-10,070-0626-1913,徒歩,60,1600,2100,4
伏見 敏雄,ふしみ としお,東京都墨田区東向島3-3-6,34.68646,135.52733,92歳,その他・不明,H,1930-12-24,080-1331-1112,バス,40,1200,2050,7
山本 奨,やまもと しょう,福井県福井市日之出2-1-22,34.69162,135.18374,51歳,男,S,1971-09-12,050-4956-6087,徒歩,160,1200,2250,8
片桐 竜平,かたぎり りょうへい,鳥取県鳥取市若葉台北1-2-1002,34.68572,135.83282,48歳,男,D,1975-05-25,090-0366-6298,バス,20,1050,2850,9
毛利 英一,もうり えいいち,東京都足立区竹の塚3-2-12,34.22651,135.16743,30歳,男,B,1992-06-27,070-4349-0883,電車,150,1850,3000,4
坂田 健治,さかた けんじ,神奈川県綾瀬市落合北3-3-7,35.50327,134.23891,0歳,男,Q,2022-09-07,070-8341-6265,電車,150,1400,2800,9
新津 邦子,にいつ くにこ,新潟県新潟市西区坂井砂山3-2-1104,35.4723,133.05066,17歳,女,S,2006-05-03,050-7050-3653,バス,10,1950,2100,8
山根 比呂子,やまね ひろこ,埼玉県八潮市八潮1-3-4,34.66132,133.93522,85歳,女,D,1938-05-08,050-9255-9949,電車,40,1800,2050,4
沼田 美香,ぬまた みか,静岡県榛原郡吉田町神戸222,34.39623,132.45968,80歳,女,C,1943-04-13,090-7868-2638,自転車,70,1400,2750,6
水谷 尚子,みずたに なおこ,東京都東久留米市本町3-3-7レイセニット104,34.18560,131.47122,67歳,女,E,1956-02-06,070-2125-9852,自転車,20,1850,2750,6
川崎 岳人,かわさき たけと,北海道空知郡上富良野町丘町2-2-6,34.06572,134.55966,53歳,男,F,1969-11-11,080-7011-4628,バス,100,1600,2650,2
小倉 貴大,おぐら たかひろ,福岡県中間市中鶴3-2-9,34.34020,134.0435,21歳,男,E,2001-10-21,090-5448-1249,バス,130,1550,2400,3
宮本 葉月,みやもと はづき,福岡県福岡市博多区板付1-2-3,33.84188,132.76657,66歳,女,G,1956-12-30,050-9288-3392,自転車,180,1150,2150,1
望月 友美,もちづき ゆみ,東京都墨田区東駒形2-5-1207,33.55951,133.53121,89歳,女,T,1933-07-30,070-5216-7070,電車,170,1900,2300,5
今村 麻衣子,いまむら まいこ,東京都新宿区四谷3-2-10,33.60659,130.41817,47歳,女,C,1975-10-25,050-5438-4530,電車,40,1550,2650,2
石村 充史,いしむら あつし,大阪府大阪市東淀川区小松2-2-6,33.24981,130.29866,27歳,男,E,1996-05-25,080-7366-9956,自転車,160,1650,2450,9
箱崎 雅夫,はこざき まさお,岡山県倉敷市児島唐琴2-2-21,32.74422,129.87377,77歳,男,G,1945-06-12,080-6352-8697,自転車,160,1100,2100,6
原 美月,はら みづき,鹿児島県霧島市国分中央3-3-18,32.78946,130.74189,52歳,女,O,1970-10-22,090-1157-1978,自転車,90,1400,2950,6
荒居 一真,あらい かずま,埼玉県さいたま市南区別所1-4-7,33.2388,131.61214,64歳,その他・不明,B,1958-09-19,070-8187-9334,徒歩,30,1600,2700,6
小林 顕太郎,こばやし けんたろう,東京都杉並区西荻南3-1-3フラット212,31.9116,131.42324,21歳,男,E,2002-05-01,080-9060-6864,バス,100,1200,2200,4
山本 義男,やまもと よしお,神奈川県川崎市幸区南加瀬3-4-1107,31.56036,130.55871,81歳,男,A,1941-10-27,070-4013-0597,バス,180,1750,3000,6
岡本 一隆,おかもと かずたか,北海道札幌市中央区南六条西1-1-506,26.21265,127.68165,33歳,男,F,1990-03-06,070-1899-7363,電車,80,1050,2750,7
角田 伸久,つのだ のぶひさ,愛媛県松山市畑寺2-3-14,34.97641,138.38399,19歳,男,L,2004-02-11,050-7545-8880,電車,170,1400,2700,6
福井 千恵,ふくい ちえ,神奈川県平塚市平塚3-4-506,35.18034,136.90695,52歳,女,F,1970-11-29,050-4568-8946,自転車,70,1200,2150,5
山 博文,やま ひろふみ,北海道札幌市南区川沿三条3-4-22,34.73037,136.50869,7歳,男,G,2016-04-25,050-9471-1406,徒歩,120,1700,2350,7
宇佐美 成美,うさみ なるみ,東京都中央区八丁堀3-1-8,35.00431,135.86822,25歳,女,Q,1998-01-16,050-5820-0563,自転車,80,1450,2600,9
松田 真由子,まつだ まゆこ,東京都中央区日本橋本石町1-3-905,35.02127,135.75528,5歳,女,F,2017-08-20,050-5700-8526,自転車,120,1600,2750,10
縣 武尊,あがた たける,東京都千代田区麹町2-1-6,34.68699,135.52756,85歳,男,A,1937-12-04,050-8833-5778,徒歩,70,1400,2250,2
田辺 有加,たなべ ゆか,東京都墨田区墨田2-4-9,34.69173,135.18390,64歳,女,D,1958-10-22,070-8601-3609,自転車,70,1050,2850,9
松林 陽,まつばやし あきら,山形県山形市長町2-2-21,34.68559,135.8323,77歳,男,H,1945-08-10,080-6786-5172,徒歩,140,1200,2450,1
竹田 清子,たけだ きよこ,東京都渋谷区広尾1-3-202,34.22649,135.16732,21歳,女,R,2002-02-23,090-7485-9127,バス,120,1750,2550,10
桐田 泰大,きりた やすひろ,神奈川県茅ヶ崎市浜竹3-4-15,35.50349,134.23814,8歳,その他・不明,F,2015-05-03,080-3286-2255,バス,40,2000,2450,5
永井 直貴,ながい なおき,東京都中野区新井2-3-6,35.47251,133.05085,30歳,男,O,1992-12-09,070-4868-8102,徒歩,20,1600,2050,4
清水 夢子,しみず ゆめこ,宮城県仙台市泉区南光台1-1-11,34.66179,133.93527,47歳,女,M,1975-08-21,070-0032-0174,自転車,30,1200,2500,3
加藤 美佳,かとう みか,東京都小平市小川西町1-1-9,34.39667,132.45943,79歳,女,T,1943-12-21,090-5172-5698,徒歩,50,1300,2650,8
齋藤 晶子,さいとう しょうこ,東京都港区高輪3-3-19,34.18517,131.47124,82歳,女,G,1941-03-30,090-1252-8457,電車,10,1300,2700,10
長谷川 みなみ,はせがわ みなみ,福岡県大野城市御笠川4-1-7,34.06518,134.55974,21歳,女,R,2002-02-03,090-1316-6329,徒歩,70,1750,2900,3
溝内 拓也,みぞうち たくや,神奈川県川崎市幸区戸手3-3-8,34.34063,134.04327,8歳,男,P,2015-02-27,070-2761-0631,バス,70,2000,2600,3
吉住 里英,よしずみ りえ,北海道札幌市東区北十三条東1-3-21,33.84132,132.76635,43歳,女,T,1980-01-17,090-6225-2277,電車,50,1450,2050,6
岩田 千尋,いわた ちひろ,東京都中野区上鷺宮2-2-206,33.55939,133.53177,6歳,女,R,2016-08-18,090-6779-6809,自転車,130,1550,2200,10
小泉 明子,こいずみ あきこ,東京都千代田区飯田橋2-5-707セントラルハイツ305,33.60686,130.41851,77歳,女,A,1946-04-21,090-4955-0449,自転車,50,1050,2800,2
大井 祐子,おおい ゆうこ,東京都墨田区太平3-3-6アールヴェール108,33.24939,130.29875,39歳,女,C,1983-11-01,050-9383-3946,自転車,40,1400,2250,9
信太 枝里,しだ えり,東京都西東京市田無町1-3-7,32.74481,129.87364,11歳,女,S,2011-09-17,070-5600-3495,電車,110,1300,2250,6
由良 愛,ゆら あい,東京都港区六本木1-5-10,32.78997,130.74114,59歳,女,M,1964-05-12,090-8818-7635,自転車,10,1300,2900,10
内田 剛志,うちだ つよし,長野県長野市吉田2-2-8グランパラッシオ214,33.23837,131.61225,88歳,男,D,1935-02-15,090-8918-5127,電車,160,1250,2600,8
安部 凛,あべ りん,岐阜県岐阜市長住町1-3-9グルーブ212,31.91162,131.42388,50歳,女,D,1972-11-18,050-1124-2150,徒歩,50,1250,2650,7
上田 梓,うえだ あずさ,宮城県仙台市太白区長町南2-5-21シンプルライフ201,31.56060,130.55826,73歳,女,H,1949-08-28,050-6212-8046,電車,80,1950,2700,6
河原 祐司,かわはら ゆうじ,神奈川県横浜市鶴見区潮田町3-4-5,26.21274,127.68164,4歳,男,G,2019-04-30,090-7738-8669,徒歩,130,1550,2150,6
中川 謙一,なかがわ けんいち,東京都葛飾区西水元3-2-807,43.06484,141.34645,15歳,男,F,2007-11-05,070-9819-8480,徒歩,140,1950,2200,8
石川 ひろし,いしかわ ひろし,東京都世田谷区用賀4-2-4,40.82464,140.74316,77歳,男,D,1946-05-02,070-5807-6247,電車,30,1400,3000,7
前田 宏美,まえだ ひろみ,東京都町田市成瀬台3-2-7デュオヒルズ207,39.70367,141.15223,35歳,男,F,1988-01-08,080-1001-1132,電車,30,1450,2900,10
池松 絢香,いけまつ あやか,鹿児島県鹿児島市下荒田3-4-4,38.26882,140.87136,47歳,女,I,1975-07-18,050-7736-5231,バス,70,1200,2250,2
武田 丈史,たけだ たけふみ,福岡県福岡市南区野間4-1-9,39.71885,140.10281,24歳,男,D,1998-10-11,050-3633-9897,バス,160,1150,2650,8
大江 真里,おおえ まり,静岡県磐田市前野23,38.24076,140.36397,56歳,女,R,1966-07-25,090-8370-1445,自転車,40,2000,2150,8
遠藤 武彦,えんどう たけひこ,群馬県安中市原市1-1-3,37.75170,140.46712,78歳,男,J,1945-04-18,090-2628-5135,電車,130,1450,2450,2
米田 幸代,よねだ ゆきよ,神奈川県座間市入谷1-3-5,36.34178,140.44694,41歳,女,H,1982-03-06,090-6377-2405,バス,160,1950,2300,1
宇佐美 高志,うさみ たかし,愛知県名古屋市千種区猫洞通1-2-7,36.56597,139.88396,84歳,男,H,1939-01-29,080-9829-8216,バス,60,1400,2250,9
徳永 信,とくなが しん,東京都新宿区四谷3-2-13,36.39170,139.0601,62歳,男,C,1960-06-11,050-5124-5568,自転車,140,1050,2350,1
藤岡 和哉,ふじおか かずや,福岡県福岡市博多区中洲2-4-10,35.85655,139.64893,23歳,男,K,2000-03-26,050-7708-7893,バス,30,2000,2550,5
井口 学,いぐち まなぶ,大阪府大阪市旭区新森1-1-9,35.60421,140.12340,17歳,男,F,2005-06-11,080-4252-3060,自転車,80,1300,2400,8
村瀬 智久,むらせ ともひさ,東京都港区芝3-4-3,35.68932,139.69199,85歳,男,O,1938-03-06,050-3981-1105,自転車,170,1500,2100,4
安藤 孝寛,あんどう たかひろ,北海道札幌市白石区菊水元町六条1-2-701レスタージュ206,35.44745,139.64218,48歳,男,H,1974-06-14,090-7187-7466,電車,60,1100,2600,2
梅沢 美波,うめざわ みなみ,北海道登別市新生町1-3-206,37.90283,139.02366,9歳,女,R,2013-11-18,080-4751-2734,バス,20,1200,2750,10
西田 和宏,にしだ かずひろ,千葉県大網白里市みどりが丘1-2-3,36.69515,137.21129,76歳,男,R,1947-01-09,050-2631-4456,徒歩,160,1300,2100,3
村上 真人,むらかみ まひと,東京都葛飾区細田2-5-16,36.59438,136.62517,30歳,男,R,1992-10-22,050-7686-6012,バス,140,1350,2350,1
舟田 潤,ふなだ じゆん,大阪府大阪市西区川口3-5-18,36.06581,136.22141,34歳,男,P,1989-01-01,050-4171-5763,徒歩,40,1550,2050,3
大倉 秋,おおくら あき,福井県福井市日之出3-4-13,35.66383,138.56861,9歳,女,O,2013-07-10,070-4966-1649,バス,110,1700,2700,7
藤野 紀人,ふじの のりひと,東京都杉並区南荻窪3-5-3,36.6515,138.18197,65歳,男,F,1958-01-10,090-5880-1310,徒歩,120,1450,2700,3
新井 洋一,あらい よういち,東京都荒川区東尾久1-3-9,35.39133,136.7229,66歳,男,K,1956-09-26,050-3090-1575,自転車,50,1600,2300,2
大城 久,おおしろ ひさし,東京都世田谷区太子堂1-3-7,34.97611,138.3839,91歳,男,G,1932-06-02,050-4705-0395,電車,10,1050,2300,7
宇田 裕子,うだ ゆうこ,熊本県熊本市中央区水前寺2-2-10,35.18010,136.90671,34歳,女,K,1989-01-05,080-5485-8507,電車,110,1400,2100,1
板倉 洋平,いたくら ようへい,千葉県我孫子市青山台4-3-5エフコート306,34.73011,136.50830,83歳,男,H,1939-09-03,080-6623-9124,自転車,30,1050,2600,1
中野 豊,なかの ゆたか,広島県広島市西区高須台1-2-19,35.00470,135.86863,57歳,男,G,1965-12-17,050-3286-8770,徒歩,140,1300,3000,2
渋谷 浩二,しぶや こうじ,福岡県福岡市南区長丘1-1-8,35.02189,135.75574,40歳,男,C,1983-02-06,050-0562-5251,自転車,10,1550,2450,3
石井 翼,いしい つばさ,大阪府吹田市高野台2-4-21,34.68672,135.52744,95歳,男,I,1927-09-01,050-7761-1645,自転車,140,1450,2800,2
上田 健太,うえだ けんた,長野県松本市中央1-2-3,34.69193,135.18363,31歳,その他・不明,Q,1991-12-12,050-6886-9762,自転車,100,1650,2400,8
中村 秀行,なかむら ひでゆき,東京都町田市玉川学園1-2-8,34.68537,135.83260,0歳,男,P,2022-11-17,080-1604-6654,電車,30,1050,2600,7
竹内 正隆,たけうち まさたか,北海道札幌市北区北十条西1-1-9,34.22693,135.16794,80歳,男,B,1943-05-19,080-3919-9378,徒歩,30,1600,2600,7
島田 雅子,しまだ まさこ,東京都板橋区板橋2-5-203,35.5031,134.23875,15歳,女,L,2007-12-05,090-0769-9635,バス,80,2000,2750,8
牛田 道人,うしだ みちひと,愛知県名古屋市中村区名駅3-3-9,35.47279,133.05034,27歳,男,C,1995-06-14,090-2758-5234,電車,160,1850,2800,2
米沢 千明,よねざわ ちあき,東京都小金井市前原町3-1-9,34.66138,133.93547,48歳,女,P,1974-12-20,070-8050-1361,徒歩,120,1700,2800,9
三須 潤,みす じゆん,岡山県岡山市北区伊福町4-1-10マンション201,34.39693,132.45940,13歳,男,O,2009-07-24,050-8308-5715,電車,30,2000,2500,6
遠藤 志織,えんどう しおり,埼玉県越谷市赤山町2-2-8,34.18587,131.47115,12歳,女,B,2011-04-02,090-6535-4342,バス,20,1800,2800,5
佐藤 公亮,さとう こうすけ,大阪府八尾市相生町1-2-11,34.0654,134.55990,42歳,男,O,1981-01-01,090-1716-8232,電車,20,1400,2450,1
齋藤 かおり,さいとう かおり,静岡県磐田市中泉34,34.34050,134.04392,59歳,女,A,1963-11-08,070-2274-6753,自転車,180,1500,2400,2
大堀 達也,おおほり たつや,静岡県焼津市祢宜島45,33.8413,132.76668,74歳,男,J,1949-02-16,050-3364-7248,自転車,110,2000,2050,6
岩瀬 裕輔,いわせ ゆうすけ,兵庫県神戸市東灘区北青木2-1-1202,33.5592,133.53170,59歳,男,T,1963-07-22,070-4206-3137,徒歩,170,1350,2550,8
田尻 ゆりこ,たじり ゆりこ,北海道茅部郡森町字砂原西1-4-17,33.60628,130.41893,36歳,女,M,1986-10-18,080-3108-8958,バス,170,1600,3000,7
荒川 正弘,あらかわ まさひろ,東京都目黒区碑文谷3-5-9,33.24973,130.29864,65歳,男,H,1957-10-16,050-5789-3230,バス,160,1850,2750,7
弘中 寛,ひろなか ひろし,千葉県船橋市西船4-2-9,32.74431,129.87378,59歳,男,P,1963-11-26,080-3090-4779,電車,160,1600,2150,7
河越 公平,かわごえ こうへい,東京都目黒区上目黒1-5-17,32.78945,130.74167,87歳,男,Q,1936-05-17,080-7939-3056,電車,100,1950,2550,7
立原 豊,たちはら ゆたか,新潟県新潟市西区上新栄町1-3-10,33.23871,131.61241,4歳,男,B,2019-03-12,070-0446-3608,自転車,10,1300,2250,8
坂口 聖也,さかぐち せいや,新潟県長岡市蓮潟2-3-6,31.91190,131.42312,50歳,男,O,1972-09-10,080-7569-1007,電車,70,1350,2900,9
藤川 聡,ふじかわ あきら,兵庫県宝塚市平井3-5-101,31.56036,130.55873,51歳,男,N,1972-01-23,090-3611-2148,自転車,70,1500,2600,9
三谷 明恵,みたに あきえ,福岡県福岡市東区箱崎ふ頭1-5-8ラヴェール215,26.21221,127.68116,91歳,女,D,1931-10-19,080-4402-0153,電車,40,1500,2300,8
諏訪 尚彦,すわ なおひこ,福岡県福岡市中央区天神3-4-16,34.97670,138.38390,22歳,男,E,2000-09-03,050-9194-7878,電車,90,1900,2100,1
藤田 誠,ふじた まこと,神奈川県相模原市南区相南3-2-13,35.18018,136.90611,28歳,男,C,1995-03-01,090-5238-1264,徒歩,10,1900,2800,2
中島 博明,なかじま ひろあき,愛知県名古屋市中区栄2-4-4,34.7304,136.50893,72歳,男,D,1950-09-18,050-7045-0816,バス,120,1250,2250,4
福田 隆二,ふくだ りゅうじ,大阪府池田市神田3-3-3,35.00496,135.86827,84歳,男,I,1939-01-22,090-8096-2523,電車,80,1050,2600,1
青木 亜樹,あおき あき,東京都練馬区富士見台1-2-1006フォレスティア410,35.02190,135.75526,86歳,女,O,1937-02-07,050-8721-4434,電車,170,1050,2450,3
武田 丈裕,たけだ たけひろ,神奈川県厚木市中町1-5-20,34.6869,135.52750,54歳,男,P,1968-09-10,070-8181-4089,バス,130,1100,2050,7
小西 崇,こにし たかし,神奈川県川崎市幸区塚越2-2-9,34.69146,135.18397,38歳,男,I,1984-12-17,080-7366-7046,バス,80,1300,3000,5
菅原 健治,すがわら けんじ,大阪府大阪市生野区中川2-1-8マンハイム802,34.68532,135.83248,14歳,男,Q,2008-09-21,080-6759-2208,バス,160,1400,2500,10
竹本 俊光,たけもと としみつ,東京都練馬区東大泉1-3-7,34.22668,135.1676,11歳,男,C,2011-12-14,070-9298-0942,バス,180,1600,2150,6
河原 千賀,かわはら ちか,東京都八王子市散田町1-1-20,35.50362,134.23887,72歳,女,K,1950-10-06,080-3051-1475,バス,160,1150,2800,10
菅原 文隆,すがわら ふみたか,東京都世田谷区奥沢1-2-7,35.47247,133.05055,46歳,男,Q,1976-08-02,070-5495-0485,徒歩,50,1250,2950,8
稲井 歩美,いない あゆみ,東京都調布市布田2-3-17,34.6611,133.9353,26歳,女,Q,1997-05-28,070-9040-1994,バス,20,1050,2250,3
青山 玲,あおやま れい,神奈川県横浜市港北区新吉田東1-1-10,34.3964,132.45974,56歳,その他・不明,N,1966-11-08,050-7131-7988,自転車,80,1200,2750,5
村上 聖太,むらかみ しょうた,神奈川県川崎市幸区戸手2-3-7,34.18558,131.47126,2歳,男,C,2020-08-28,090-8668-0571,バス,160,1750,2100,8
猪岡 啓介,いのおか けいすけ,兵庫県神戸市灘区備後町1-1-7,34.06578,134.55976,2歳,男,E,2020-10-25,080-3645-1712,電車,90,1450,2100,6
石井 邦彦,いしい くにひこ,東京都台東区台東1-3-101メイツ712,34.34047,134.04348,51歳,男,E,1971-06-10,070-1950-1463,徒歩,20,1100,2700,9
中島 秀明,なかじま ひであき,青森県弘前市大字大清水3-5-16,33.84180,132.76626,61歳,男,R,1962-04-16,050-3132-5637,徒歩,30,1100,2500,9
阿曽 憲司,あそ けんじ,東京都品川区東五反田1-1-10オークス411,33.55972,133.53132,84歳,男,I,1939-01-31,070-6822-5428,自転車,70,1050,2100,7
足立 幸子,あだち さちこ,福岡県福岡市東区多の津2-5-5,33.60616,130.41835,5歳,女,P,2017-09-16,050-3947-4426,バス,50,1650,2050,6
新見 周平,にいみ しゅうへい,大阪府大阪市天王寺区大道4-2-6ランフォルセ403,33.24976,130.29834,98歳,男,O,1925-02-10,070-7917-1183,自転車,110,1350,2750,10
青木 敦子,あおき あつこ,宮城県仙台市宮城野区榴岡4-3-8,32.7446,129.87397,57歳,女,G,1965-12-19,050-0422-2731,電車,110,1150,2850,3
山田 和也,やまだ かずや,北海道札幌市北区北十九条西3-3-201,32.78929,130.74152,41歳,男,O,1982-02-14,070-3783-7771,バス,30,1400,2400,1
谷口 史恵,たにぐち ふみえ,宮崎県日南市戸高3-2-9,33.23828,131.61212,96歳,女,L,1926-12-30,080-0547-5700,電車,40,1350,2100,5
石田 敬介,いしだ けいすけ,神奈川県横浜市中区相生町2-3-12,31.91144,131.42379,75歳,男,E,1948-01-28,050-5404-4702,自転車,100,1400,2350,9
本田 智哉,ほんだ ともや,愛媛県今治市小泉3-3-9グランスイート103,31.56094,130.55889,3歳,男,C,2019-10-26,070-2931-0306,電車,140,1400,2150,9
笠井 哲雄,かさい てつお,東京都品川区荏原1-4-10,26.21272,127.68120,46歳,男,K,1976-06-06,050-7700-5762,電車,100,1400,2100,3
杉山 龍男,すぎやま たつお,神奈川県相模原市南区麻溝台1-1-9オークヒルズ810,34.97676,138.38389,31歳,男,M,1991-08-15,070-4199-5358,徒歩,70,1900,2250,1
野田 京,のだ きょう,神奈川県川崎市多摩区西生田3-1-13,35.18081,136.90657,51歳,男,N,1972-02-08,090-2846-7465,電車,20,1950,2650,10
鳥巣 昌宏,とりす まさひろ,滋賀県大津市大江3-5-10サンヴェール709,34.73057,136.50812,7歳,男,S,2016-05-15,070-8779-3383,電車,160,1750,2700,6
本田 洋介,ほんだ ようすけ,東京都練馬区氷川台3-4-9,35.00495,135.86857,92歳,男,C,1930-08-11,050-2087-0239,バス,180,1950,2750,2
冨川 大輔,とみかわ だいすけ,愛知県春日井市八光町3-5-1104,35.02149,135.75536,54歳,男,H,1968-08-21,080-9184-2258,バス,110,1550,2850,10
倉本 弘美,くらもと ひろみ,東京都北区中十条2-2-8ファミーユ503,34.68649,135.52794,15歳,女,Q,2007-09-11,050-3292-2743,徒歩,130,1950,2650,2
中島 翔太,なかじま しょうた,神奈川県横浜市鶴見区下末吉3-5-1204ギャラリーコート204,34.69162,135.18329,6歳,男,F,2017-03-30,090-6176-8415,徒歩,10,1750,2750,1
大林 将英,おおばやし まさひで,東京都港区虎ノ門3-2-5,34.6851,135.83225,45歳,男,R,1977-12-08,090-9197-3953,自転車,50,1300,2300,2
安本 健司,やすもと けんじ,千葉県船橋市本町2-1-19,34.22625,135.16734,40歳,男,E,1982-08-03,080-3671-4692,バス,170,1300,2750,8
清川 恵理,きよかわ えり,群馬県桐生市宮本町3-4-11,35.50360,134.23823,17歳,女,P,2005-07-08,050-7106-2577,自転車,120,1950,2200,3
根来 安夫,ねごろ やすお,東京都港区芝2-3-22,35.47248,133.05048,27歳,男,B,1995-09-15,050-3843-9390,電車,40,1900,2700,9
牧 健二,まき けんじ,東京都杉並区高円寺南3-3-5,34.66140,133.9353,62歳,男,A,1960-08-05,080-7063-4575,徒歩,110,1100,2200,8
福島 礼人,ふくしま のりひと,東京都杉並区西荻北4-2-4,34.39618,132.45969,27歳,男,S,1996-01-17,090-0376-3035,バス,70,1350,2450,2
石森 豪,いしもり たけし,熊本県熊本市北区龍田1-5-18セントラル411,34.18572,131.47177,6歳,男,H,2016-10-01,070-0411-5582,バス,160,1450,2050,8
山内 誠,やまうち まこと,東京都渋谷区神宮前2-4-7アーバンライフ101,34.06575,134.55969,86歳,男,E,1937-05-08,090-9861-2903,自転車,40,1500,2650,1
小池 侑加,こいけ ゆうか,大阪府大阪市中央区南船場1-1-11,34.34040,134.04328,86歳,その他・不明,G,1937-02-15,070-0772-3284,バス,130,1650,2200,9
田中 晃弘,たなか あきひろ,福岡県福岡市南区横手4-1-4,33.84177,132.76689,43歳,男,H,1980-05-02,050-8333-7214,自転車,120,1150,2750,6
須山 絵里子,すやま えりこ,東京都足立区梅田2-3-4,33.55980,133.53131,30歳,女,D,1993-05-02,080-8733-0076,徒歩,50,1900,2250,9
岡林 智子,おかばやし ともこ,福岡県福岡市博多区博多駅前2-3-21,33.60652,130.41812,99歳,その他・不明,O,1923-10-10,080-6540-3377,電車,80,1850,2050,2
川岸 英子,かわぎし ひでこ,石川県野々市市本町2-4-16,33.24938,130.29827,36歳,女,M,1986-08-09,070-6450-5752,バス,80,1850,2150,3
黒田 直矢,くろだ なおや,広島県安芸郡熊野町呉地1-2-7,32.74439,129.87364,97歳,男,C,1926-03-16,050-0431-0945,自転車,50,1900,2900,10
木下 浩樹,きのした ひろき,東京都豊島区池袋2-1-8ガーデンハイツ804,32.78980,130.74184,26歳,その他・不明,H,1996-09-27,080-9848-5517,電車,60,1400,2700,7
吉田 匠,よしだ たくみ,山口県下関市後田町1-3-18シャンボール514,33.23839,131.61243,53歳,男,R,1969-09-24,050-9438-5981,電車,70,1800,2300,5
入山 コウジ,いりやま こうじ,東京都品川区東品川2-4-21ブランシエラ209,31.91115,131.42316,88歳,男,M,1934-10-03,050-7367-3902,自転車,40,1650,2600,3
中澤 優子,なかざわ ゆうこ,兵庫県神戸市長田区御蔵通1-3-8,31.560100,130.55878,53歳,女,C,1970-02-20,080-2740-1039,バス,150,1600,2400,1
吉田 聖一,よしだ せいいち,兵庫県神戸市中央区熊内橋通1-3-17,26.21214,127.68152,14歳,男,G,2008-11-30,080-8857-0871,電車,20,1500,2550,7
高橋 亜由美,たかはし あゆみ,東京都武蔵野市吉祥寺東町1-3-108,34.97643,138.38332,8歳,女,N,2015-03-16,080-9947-6187,徒歩,160,1050,2550,5
高橋 里恵,たかはし りえ,大阪府大阪市中央区南船場1-4-21グランドプラザ716,35.18026,136.90634,21歳,女,T,2002-03-05,080-2104-0333,電車,120,1850,2700,1
伊地知 勝也,いじち かつや,愛知県名古屋市中村区名駅3-4-5,34.73054,136.50845,99歳,男,A,1923-11-08,090-7513-4722,徒歩,180,1700,2600,9
原 明博,はら あきひろ,東京都新宿区西落合1-2-105,35.00444,135.86885,37歳,男,O,1986-01-01,050-7935-6677,バス,170,1350,2750,9
柴田 英紀,しばた ひでのり,東京都中央区日本橋室町3-4-1105,35.02136,135.75582,84歳,男,S,1938-11-21,090-5077-0191,自転車,90,1400,3000,8
堤 京子,つつみ きょうこ,東京都江戸川区江戸川4-3-8,34.68694,135.52725,24歳,女,O,1998-08-17,050-1810-4645,バス,50,1150,2850,1
井戸 美奈子,いど みなこ,大阪府大阪市住吉区帝塚山東1-1-8,34.69175,135.1834,9歳,女,F,2013-09-27,090-2588-8916,徒歩,80,1150,2400,6
紺谷 賢,こんたに けん,千葉県浦安市富士見2-1-6ユーロハイツ701,34.68563,135.83262,38歳,男,S,1984-11-22,050-2283-4868,自転車,80,1200,2850,3
川村 創太,かわむら そうた,神奈川県横浜市磯子区中原3-3-8,34.22686,135.16786,82歳,男,E,1940-10-21,050-1985-5924,電車,170,1550,2900,3
加藤 健人,かとう けんと,東京都板橋区西台1-2-16インペリアル406,35.50392,134.23822,7歳,男,N,2015-06-05,080-9767-8371,徒歩,120,1400,2650,3
久原 文乃,くはら あやの,秋田県秋田市御所野元町1-4-7,35.47261,133.05055,12歳,女,R,2010-07-19,050-9979-7335,徒歩,170,1650,2200,9
飯村 純平,いいむら じゅんぺい,青森県三沢市鹿中1-5-6,34.66181,133.93517,10歳,男,J,2012-06-26,090-1507-8330,電車,10,1350,2500,8
西尾 伸郎,にしお のぶお,福島県郡山市桑野3-5-18,34.39698,132.45979,70歳,男,K,1952-07-13,050-1441-8384,バス,100,1250,2350,9
渡邊 勝也,わたなべ かつや,福岡県福岡市博多区博多駅前3-2-7プロパレス401,34.18537,131.47185,57歳,男,D,1965-11-05,070-6324-5335,自転車,180,1700,2450,8
田中 謙一,たなか けんいち,山梨県甲府市住吉1-2-5,34.06515,134.55942,53歳,男,L,1970-05-07,070-3398-4981,徒歩,110,1950,2450,5
石田 謙一,いしだ けんいち,福岡県糸島市加布里2-3-6,34.34018,134.04316,88歳,男,I,1934-06-10,050-1884-5326,自転車,140,1350,2100,5
鎌田 洋之,かまた ひろゆき,栃木県足利市伊勢町2-4-10,33.84120,132.76675,72歳,男,C,1951-05-09,080-6316-9204,徒歩,100,1950,2850,5
大関 仁志,おおぜき ひとし,千葉県千葉市花見川区朝日ケ丘1-5-13セルダン502,33.55962,133.53119,1歳,男,S,2022-01-15,050-3237-6009,徒歩,90,1800,2600,8
藤原 孝太郎,ふじわら こうたろう,東京都港区西麻布3-2-17,33.60693,130.41895,52歳,男,H,1970-06-08,050-3578-5699,自転車,180,1650,2750,4
上野 拓也,うえの たくや,千葉県市川市東菅野1-2-17,33.2496,130.29817,84歳,男,B,1939-02-08,070-4756-1138,徒歩,90,1550,2450,10
山口 稔也,やまぐち としや,東京都中野区中野2-2-4,32.7448,129.8738,30歳,男,N,1993-05-05,090-7330-2525,徒歩,150,1850,2950,8
高橋 晴菜,たかはし はるな,埼玉県戸田市笹目2-2-18,32.78980,130.7413,78歳,女,C,1944-12-14,070-6212-8795,徒歩,170,1950,2650,6
石原 まなみ,いしはら まなみ,東京都墨田区緑1-3-4,33.23883,131.61234,61歳,女,R,1962-03-04,070-6895-8573,電車,180,1800,2250,5
田口 慎治,たぐち しんじ,愛知県名古屋市中区大須3-1-4,31.91110,131.42319,53歳,男,P,1969-06-26,070-5700-5819,自転車,80,1450,2750,10
廣瀬 真奈美,ひろせ まなみ,神奈川県横浜市緑区長津田みなみ台1-3-605,31.56077,130.5589,87歳,女,C,1936-01-30,070-3025-2223,自転車,100,1500,2850,10
大橋 勇樹,おおはし ゆうき,東京都渋谷区代々木4-1-5,26.21251,127.68151,46歳,その他・不明,C,1976-11-16,090-6099-6682,バス,80,1050,2750,4
藤田 慎一,ふじた しんいち,福岡県福岡市南区清水2-1-19フレックス307,43.06487,141.3469,40歳,男,N,1982-07-29,070-5773-4087,徒歩,170,1750,2700,4
鈴木 繁,すずき しげる,東京都台東区台東2-4-1205,40.82435,140.74387,10歳,男,S,2012-10-17,050-6117-2584,電車,100,1100,2100,5
竹中 涼,たけなか りょう,東京都杉並区高円寺北1-5-3,39.70318,141.15287,6歳,男,T,2016-07-28,090-2357-2985,電車,50,1700,2650,9
北村 伸行,きたむら のぶゆき,東京都千代田区麹町4-1-10ネバーランド312,38.26852,140.87185,49歳,男,N,1974-03-30,050-6317-0428,バス,60,1950,2150,5
澤田 雄一郎,さわだ ゆういちろう,大阪府箕面市坊島1-5-9,39.71867,140.10254,1歳,男,Q,2022-03-26,090-5878-3168,電車,100,2000,2400,1
酒井 浩一,さかい こういち,東京都港区南麻布4-2-4,38.24094,140.36388,98歳,男,C,1924-10-22,070-9242-7340,自転車,140,1800,2600,2
福田 恵美子,ふくだ えみこ,大阪府大阪市阿倍野区文の里1-3-10,37.75132,140.46720,58歳,女,R,1964-07-04,070-3404-7242,電車,110,1200,2550,1
熊谷 和弘,くまがい かずひろ,大阪府大阪市都島区東野田町3-1-10,36.34129,140.44686,73歳,男,D,1950-04-03,090-2415-9046,バス,100,1700,2350,9
岡 京子,おか きょうこ,東京都三鷹市大沢2-2-9,36.56553,139.88342,41歳,女,L,1981-12-27,050-1308-3396,自転車,10,1900,2600,1
中島 美樹,なかじま みき,神奈川県横須賀市長坂3-2-7,36.39120,139.06093,2歳,女,L,2020-12-07,080-0511-3815,自転車,90,1150,2850,9
大阪 舞,おおさか まい,静岡県浜松市中区佐鳴台2-1-1204,35.85645,139.64887,81歳,女,H,1941-06-14,070-9257-2064,自転車,110,1050,2250,6
田村 祐治,たむら ゆうじ,東京都新宿区高田馬場1-1-1201,35.60454,140.12360,70歳,男,L,1953-04-07,070-2620-9795,バス,20,1600,2200,9
佐々木 智子,ささき ともこ,福岡県福岡市東区千早2-5-11,35.68929,139.69186,30歳,女,A,1993-05-08,090-4919-9749,バス,50,1100,2450,4
大山 亜紀子,おおやま あきこ,北海道岩見沢市一条東1-2-10,35.44753,139.6422,97歳,女,D,1925-08-01,050-4737-4830,自転車,180,1500,2250,9
野中 雄生,のなか ゆうき,千葉県千葉市美浜区高浜1-2-9,37.90266,139.02310,41歳,男,H,1981-11-19,070-9819-7967,徒歩,180,1650,2300,7
清水 成也,しみず なるや,大阪府大阪市北区西天満1-1-7エルグレース304,36.6957,137.21116,57歳,男,P,1965-06-28,090-2869-6684,徒歩,90,1800,2300,2
佐藤 貴之,さとう たかゆき,東京都西東京市新町1-1-506,36.59419,136.62596,39歳,男,C,1984-03-18,080-1652-7924,バス,80,1800,2050,4
木谷 那津子,きたに なつこ,山口県宇部市松山町1-2-17,36.06511,136.22134,70歳,女,B,1952-07-11,050-5404-4085,徒歩,40,1550,2500,3
長根 環,ながね たまき,東京都江戸川区江戸川2-2-7ジオ715,35.66383,138.56835,96歳,女,D,1927-03-02,070-1288-7564,電車,30,1850,2250,8
小池 慎也,こいけ しんや,東京都世田谷区船橋3-3-5コンセール507,36.65158,138.18191,77歳,男,A,1945-10-18,090-9032-4784,電車,40,1200,2050,1
堤 恵,つつみ めぐみ,東京都葛飾区東四つ木2-3-1104,35.39127,136.72242,63歳,女,T,1959-12-02,090-6203-4349,徒歩,30,1950,2900,3
山口 有希子,やまぐち ゆきこ,宮城県仙台市青葉区一番町1-3-10,34.97650,138.38389,38歳,女,J,1984-08-01,070-2225-4624,電車,90,1850,2350,2
福田 亮太,ふくだ りょうた,神奈川県横須賀市ハイランド1-4-9,35.18073,136.90694,17歳,男,M,2006-01-08,050-2196-5287,自転車,50,1900,2300,8
山口 あゆみ,やまぐち あゆみ,大阪府吹田市南正雀1-3-8,34.73037,136.50864,75歳,女,A,1947-07-22,080-7019-7815,電車,20,1600,2550,1
小林 悦子,こばやし えつこ,東京都港区赤坂2-5-609,35.00418,135.86836,92歳,女,B,1931-01-15,070-8602-5241,自転車,30,1950,2100,6
笹本 克己,ささもと かつみ,東京都新宿区西新宿2-3-14,35.02166,135.7559,92歳,男,H,1931-01-23,080-2921-0159,自転車,130,1150,2200,5
森 多恵子,もり たえこ,千葉県船橋市習志野1-2-4キングマンション707,34.68648,135.52772,32歳,女,E,1991-04-28,050-6149-6747,バス,80,1100,2400,4
矢野 直人,やの なおと,沖縄県豊見城市宜保2-3-21,34.6911,135.18370,46歳,男,C,1976-08-03,080-4079-0363,徒歩,180,1900,2650,7
伊藤 雄太郎,いとう ゆうたろう,大阪府吹田市津雲台3-5-21,34.68557,135.8328,33歳,男,N,1990-01-13,080-9633-3712,徒歩,120,1600,2600,8
竹川 まみ,たけかわ まみ,東京都港区虎ノ門2-2-7,34.22632,135.167100,93歳,その他・不明,H,1929-12-27,070-4280-0953,電車,30,1400,2100,9
小松 健,こまつ けん,千葉県千葉市花見川区花園1-2-4,35.50362,134.23819,68歳,男,L,1954-06-15,050-9217-0666,バス,130,1700,2300,9
木原 雄一,きはら ゆういち,東京都中野区上高田3-3-22,35.4720,133.05047,44歳,男,M,1978-06-29,090-8994-0291,電車,150,1250,2850,2
能登 良太郎,のと りょうたろう,東京都目黒区中目黒3-2-1001,34.66137,133.93533,82歳,男,G,1940-12-11,050-0750-3171,徒歩,50,1250,2200,4
吉川 隆司,よしかわ りゅうじ,東京都千代田区麹町3-5-9,34.39655,132.45963,57歳,男,T,1965-06-13,080-1921-2606,自転車,40,1050,2400,2
谷口 直人,たにぐち なおと,福岡県福岡市南区弥永3-3-7,34.18531,131.47147,48歳,男,S,1975-01-23,070-1213-7199,徒歩,160,1750,2100,8
大竹 英彰,おおたけ ひであき,東京都新宿区四谷2-3-8,34.06573,134.55919,42歳,男,A,1981-05-15,090-6465-4898,電車,150,1500,2150,7
山本 優,やまもと ゆう,三重県鈴鹿市住吉1-4-7,34.34098,134.04388,86歳,男,L,1936-09-04,070-2647-0532,徒歩,140,1700,2950,10
若尾 由実,わかお ゆみ,東京都世田谷区上北沢2-3-906,33.84175,132.76650,14歳,女,L,2009-04-27,090-2322-1302,電車,150,1450,2850,5
水口 崇,みずぐち たかし,東京都世田谷区桜上水2-2-13,33.55938,133.53143,5歳,男,R,2017-11-19,070-8826-5953,徒歩,100,1850,2850,1
桐原 崇博,きりはら たかひろ,東京都町田市森野1-3-22,33.6067,130.41815,100歳,男,P,1922-11-25,050-1851-9569,バス,60,1700,2750,1
田中 正己,たなか まさみ,東京都大田区大森東1-4-20,33.24944,130.29851,89歳,男,J,1933-11-10,080-6760-8296,電車,140,1900,2600,9
高橋 誠一,たかはし せいいち,奈良県奈良市芝辻町1-3-3フィオーレ215,32.74433,129.87314,59歳,男,L,1963-11-28,080-7246-3028,自転車,80,1450,2850,2
田島 智春,たじま ちはる,大阪府大阪市天王寺区大道3-2-14,32.78947,130.74169,18歳,男,B,2004-06-12,090-8572-8563,徒歩,90,1400,2050,9
川上 有希子,かわかみ ゆきこ,大分県大分市豊海2-4-11,33.23838,131.61267,39歳,女,D,1984-01-28,090-0880-8488,自転車,120,1750,2500,6
矢田 毅,やだ たかし,東京都葛飾区鎌倉3-3-702グランドコーポ808,31.91137,131.42382,25歳,男,C,1997-11-13,050-1852-7766,自転車,80,1200,2400,1
本田 厚,ほんだ あつし,長野県諏訪市沖田町3-2-13,31.56041,130.55858,83歳,男,D,1940-03-15,090-1567-0115,電車,80,1050,2500,3
水谷 則之,みずたに のりゆき,大阪府大阪市旭区新森3-1-3,26.21241,127.68112,9歳,その他・不明,O,2013-07-07,080-9493-3698,バス,180,1350,2300,10
佐藤 健人,さとう けんと,大阪府大阪市中央区瓦町2-1-10,34.97651,138.38351,23歳,その他・不明,N,2000-04-14,080-9217-3354,徒歩,100,1900,2200,6
奈良 優,なら ゆう,富山県富山市総曲輪4-2-7アーバンプラザ813,35.18072,136.9068,5歳,女,F,2018-04-28,090-7715-9923,徒歩,10,1500,2650,2
田村 武史,たむら たけふみ,北海道北広島市大曲工業団地3-1-5,34.73077,136.50877,97歳,男,B,1925-11-12,050-3336-9755,バス,40,1700,2550,3
福島 明香,ふくしま さやか,福岡県福岡市博多区中洲2-2-11,35.00484,135.86853,12歳,女,Q,2011-03-20,070-5159-3038,徒歩,130,1750,2300,2
石川 恵,いしかわ めぐみ,北海道札幌市西区発寒十三条3-2-1001,35.02133,135.75568,7歳,女,L,2016-04-05,050-0107-4288,バス,140,1350,2250,10
楠元 麻美,くすもと あさみ,岐阜県岐阜市山吹町3-3-309,34.6861,135.52749,45歳,女,D,1978-01-02,070-0339-9748,電車,120,1650,2100,2
斉藤 大輔,さいとう だいすけ,大阪府大阪市此花区島屋3-2-15ロイヤルマンション312,34.69145,135.18393,1歳,男,F,2022-03-10,050-3375-9208,バス,130,1700,2350,1
鈴木 静花,すずき しずか,東京都中央区八丁堀3-1-17ネオライフマンション515,34.68592,135.83289,46歳,女,L,1977-01-16,080-6170-8972,自転車,140,1850,2300,8
平山 愛,ひらやま あい,千葉県市川市市川南2-2-7クレアガーデン313,34.22671,135.16710,17歳,女,B,2006-06-02,080-2800-5566,自転車,160,1050,3000,6
横田 智宏,よこた ともひろ,東京都目黒区目黒3-5-19シャトード615,35.50313,134.23860,44歳,男,J,1978-07-20,070-6357-5781,電車,30,1700,2150,4
小島 恵介,こじま けいすけ,東京都港区三田3-2-9ネオステージ411,35.47212,133.05026,19歳,男,O,2003-12-10,090-7399-4242,電車,110,1350,2350,1
石井 節子,いしい せつこ,熊本県熊本市中央区新町1-3-802,34.66198,133.93510,21歳,その他・不明,A,2001-10-07,070-0666-2077,徒歩,160,1600,2400,5
明石 みなみ,あかし みなみ,大阪府大阪市淀川区東三国2-1-15,34.39628,132.45967,60歳,女,F,1962-10-16,090-7657-7677,徒歩,50,1150,2450,2
田島 いつみ,たじま いつみ,山口県下関市王司本町3-4-3,34.18547,131.47191,31歳,女,H,1991-10-18,050-9543-7284,バス,160,1600,3000,6
村上 恵美,むらかみ えみ,和歌山県和歌山市湊2-1-1106,34.0654,134.5590,47歳,女,T,1975-11-11,080-7175-3876,バス,100,2000,2900,1
武田 明,たけだ あきら,東京都杉並区下高井戸1-5-6ハイデンス309,34.34079,134.04394,4歳,男,P,2018-10-05,080-6276-7030,徒歩,30,1800,3000,3
小森 隆之,こもり たかゆき,山形県山形市桧町4-2-7ジャルダン305,33.84135,132.76621,11歳,男,B,2011-08-30,080-4521-4796,自転車,90,1700,2950,7
加藤 光俊,かとう みつとし,東京都渋谷区本町3-5-706,33.55962,133.53111,44歳,男,T,1978-10-15,080-7200-7131,自転車,50,1800,2700,10
矢野 有祐,やの ゆうすけ,大阪府大阪市福島区鷺洲2-5-4プレシアス406,33.60674,130.41887,64歳,男,O,1959-03-29,070-2694-7867,電車,140,1250,2800,9
渡部 麻里,わたなべ まり,大阪府豊能郡豊能町ときわ台3-5-9,33.24917,130.29898,40歳,その他・不明,E,1983-01-06,070-4402-9647,徒歩,180,1750,2200,8
及川 次郎,おいかわ じろう,東京都豊島区池袋2-3-4パストラル206,32.74447,129.87347,26歳,男,O,1997-05-27,080-0604-9622,バス,90,1250,2050,4
後藤 勝,ごとう まさる,東京都千代田区九段北3-4-14ディークラディア808,32.78958,130.74199,33歳,男,C,1990-01-09,070-2447-8824,自転車,120,1800,2600,3
小川 秀俊,おがわ ひでとし,愛知県名古屋市中川区戸田3-2-9,33.23878,131.6122,36歳,男,O,1986-12-03,050-3970-9590,自転車,40,1450,2500,2
岩間 真弓,いわま まゆみ,神奈川県藤沢市白旗3-1-6アーク202,31.91171,131.42369,12歳,女,E,2010-10-03,050-6130-6657,徒歩,170,1350,2100,1
高橋 友美,たかはし ゆみ,兵庫県神戸市東灘区魚崎中町3-5-408,31.56034,130.55889,93歳,女,B,1930-03-07,090-8142-2872,バス,50,1250,2450,1
増田 晃,ますだ あきら,大阪府藤井寺市野中2-1-8クレアヒルズ212,26.2120,127.68129,23歳,男,I,1999-07-14,070-9806-9914,徒歩,180,1800,2200,10
織茂 真帆,おりも まほ,東京都目黒区目黒2-1-7,34.97671,138.38335,93歳,女,G,1929-07-29,080-4650-6304,徒歩,50,2000,2100,2
徳永 あかね,とくなが あかね,神奈川県川崎市高津区下作延2-2-10,35.18033,136.9068,3歳,女,P,2020-05-31,080-8841-5049,自転車,100,1950,2300,10
近藤 琴,こんどう こと,神奈川県座間市入谷西2-2-4,34.73082,136.5081,32歳,女,O,1990-06-13,090-6118-5340,バス,40,1050,2150,10
高山 実希,たかやま みき,山梨県甲府市徳行3-3-6,35.00469,135.86836,96歳,女,R,1927-02-16,080-8196-3277,電車,70,1400,2300,7
近藤 邦子,こんどう くにこ,東京都足立区西伊興3-2-7,35.02132,135.75553,84歳,女,M,1938-08-31,070-1306-2089,バス,120,1900,2950,9
伊藤 敬司,いとう けいじ,大阪府堺市美原区木材通2-3-9,34.68650,135.52792,64歳,男,K,1958-07-08,050-5391-2122,自転車,180,1800,2750,8
向井 由紀,むかい ゆき,東京都江東区大島1-1-22,34.69148,135.18361,77歳,女,B,1945-10-04,070-7461-4094,バス,150,1950,2200,1
玉置 智治,たまき ともはる,東京都世田谷区喜多見2-1-4,34.68532,135.83217,13歳,男,F,2010-04-04,070-9393-1135,電車,90,1700,2700,6
山田 美樹,やまだ みき,青森県八戸市江陽3-5-13,34.22659,135.16735,72歳,女,S,1950-06-15,080-0119-5327,バス,40,1550,2200,6
中島 貴章,なかじま たかあき,愛知県小牧市堀の内2-2-10,35.5039,134.23862,57歳,男,H,1965-10-04,080-0062-6512,バス,90,1200,2300,6
徳山 伸悟,とくやま しんご,東京都目黒区中目黒4-2-4,35.47251,133.05020,70歳,男,Q,1952-11-24,090-3160-1118,徒歩,50,1500,2350,9
宮嵜 誠,みやざき まこと,東京都墨田区緑3-4-508アーバンプラザ708,34.66112,133.93533,10歳,男,B,2012-08-08,080-1707-2997,自転車,160,1200,2300,8
野田 由希,のだ ゆき,千葉県習志野市津田沼2-3-105,34.3963,132.45924,52歳,女,K,1970-09-22,070-6562-0488,自転車,130,1750,2700,5
秦 昭一,はた しょういち,静岡県藤枝市小石川町2-3-6,34.18593,131.47182,4歳,男,B,2018-11-28,080-3099-6078,電車,140,1300,2100,7
高野 健彦,たかの たけひこ,石川県金沢市新神田1-2-603,34.06545,134.55956,2歳,男,Q,2021-05-20,090-0473-9047,自転車,170,1100,2850,4
宮澤 真也,みやざわ しんや,東京都中野区本町2-4-701,34.34085,134.04398,18歳,男,M,2004-12-14,080-9082-6175,電車,140,1800,2200,1
萱場 大地,かやば だいち,東京都足立区足立3-3-4シャトー508,33.84137,132.76663,38歳,男,F,1985-04-25,070-4307-3394,バス,160,1650,2200,7
大山 類,おおやま るい,東京都中野区本町1-4-603セラ508,33.55925,133.53151,1歳,女,A,2021-10-11,080-8919-1696,バス,40,1600,2750,6
木村 智樹,きむら ともき,山形県酒田市亀ケ崎3-3-4,33.60680,130.41888,82歳,男,T,1941-04-02,070-0803-3282,バス,120,1750,2900,4
松川 克昭,まつかわ かつあき,群馬県桐生市広沢町2-5-1106,33.24949,130.29847,43歳,男,J,1979-07-26,070-7267-1655,徒歩,20,1800,2800,1
深水 里美,ふかみ さとみ,東京都港区芝4-3-6,32.74411,129.87335,96歳,女,J,1926-08-01,090-6358-9277,徒歩,150,1200,2750,5
川崎 正光,かわさき まさみつ,徳島県徳島市北矢三町1-1-6,32.78953,130.74183,90歳,男,B,1933-05-21,050-6896-9693,バス,110,1100,2650,1
中村 勇介,なかむら ゆうすけ,東京都葛飾区南水元1-1-12,33.23897,131.61267,72歳,男,I,1950-07-11,050-5801-6029,自転車,140,1850,2600,3
原田 誠司,はらだ せいじ,東京都渋谷区恵比寿2-5-608,31.91159,131.42374,48歳,男,N,1974-06-06,070-5958-9739,自転車,90,1400,2400,8
清水 玲央奈,しみず れおな,兵庫県三木市緑が丘町西2-2-15コボリクラスタ212,31.56022,130.55889,48歳,女,J,1975-01-04,070-9192-5310,自転車,150,1150,2400,4
中村 克彦,なかむら かつひこ,石川県金沢市畝田西2-1-11,26.21233,127.68135,3歳,男,R,2020-03-24,070-6229-8203,自転車,30,1650,2100,7
西條 晶子,さいじょう しょうこ,大阪府大阪市大正区三軒家東3-3-19,34.97612,138.38326,5歳,女,D,2017-12-21,090-4173-5286,徒歩,90,1500,2200,1
笠井 尚子,かさい なおこ,東京都荒川区東日暮里2-5-15,35.18043,136.90686,52歳,女,I,1971-04-26,090-3768-3291,徒歩,30,1750,2800,1
佐藤 里絵,さとう りえ,宮崎県延岡市緑ケ丘3-2-21ビューネ805,34.73084,136.50852,37歳,女,T,1986-01-14,090-1508-8659,自転車,30,1550,2500,5
村雲 太,むらくも ふとし,千葉県佐倉市ユーカリが丘3-2-6,35.00411,135.86816,83歳,男,P,1939-12-17,050-1588-2702,自転車,70,1050,2850,9
梅田 正也,うめだ まさや,東京都大田区大森北3-2-107,35.02138,135.75571,21歳,男,O,2002-04-15,090-8813-6498,自転車,130,1250,2950,3
野口 真,のぐち まこと,東京都江東区大島1-1-9,34.68674,135.52793,26歳,男,S,1997-02-06,090-9465-9724,自転車,110,1500,2950,2
中島 亜矢,なかじま あや,神奈川県横浜市港南区港南台2-2-404,34.69162,135.1838,65歳,女,H,1957-09-22,080-3225-6243,バス,160,1650,2400,4
横山 一宏,よこやま かずひろ,福岡県福岡市博多区博多駅前2-1-7,34.68512,135.83280,64歳,男,P,1959-01-26,070-9647-4350,バス,20,1700,2250,7
杉浦 峻,すぎうら しゅん,神奈川県横浜市港北区綱島東4-3-7,34.22670,135.16718,53歳,男,O,1969-11-02,090-5104-3003,バス,150,1600,2700,5
三輪 勝,みわ まさる,北海道上川郡当麻町六条西3-4-16,35.50376,134.23822,52歳,男,I,1970-09-11,050-4257-0839,バス,130,1900,2850,4
内田 真紀,うちだ まき,東京都豊島区駒込2-1-4,35.47270,133.05044,63歳,女,E,1959-08-13,090-2929-2630,自転車,150,1150,2300,7
江角 和人,えすみ かずと,埼玉県戸田市本町2-3-9,34.6616,133.93531,74歳,男,T,1948-11-20,090-1612-2537,バス,10,1150,2250,1
石川 香純,いしかわ かすみ,東京都目黒区目黒1-2-15スカイマンション608,34.39696,132.45933,83歳,女,M,1939-07-26,050-8689-7759,徒歩,110,1100,2100,4
齋藤 正和,さいとう まさかず,大阪府大阪市北区西天満3-1-10,34.18557,131.47140,0歳,男,T,2022-08-08,070-1097-3892,電車,170,1900,3000,6
唐川 正敏,からかわ まさとし,東京都中央区銀座3-4-1204,34.06597,134.55956,12歳,男,O,2010-08-13,070-0178-7963,バス,130,1150,2300,1
山崎 健一,やまざき けんいち,東京都江戸川区東葛西2-1-22,34.34025,134.0439,83歳,男,A,1940-04-18,050-2654-8424,電車,160,1550,2350,2
川口 晴香,かわぐち はるか,栃木県下野市小金井4-3-4,33.84132,132.76628,80歳,女,I,1943-01-14,090-1761-2230,バス,150,1100,2400,2
富田 浩,とみた ひろし,東京都渋谷区恵比寿3-1-105,33.55923,133.53121,8歳,男,C,2015-01-30,080-6522-2993,電車,50,1400,2450,2
竹田 里奈,たけだ りな,東京都江戸川区東小松川3-2-17,33.60650,130.41834,72歳,女,K,1950-09-28,070-5320-8214,自転車,90,1650,2800,5
前田 昌弘,まえだ まさひろ,岐阜県岐阜市高森町1-3-1201,33.24962,130.2983,0歳,男,F,2023-05-25,090-8949-4251,徒歩,80,1350,2050,8
中嶋 昌子,なかじま まさこ,福岡県北九州市八幡西区小嶺台3-2-17,32.74479,129.87369,99歳,女,B,1924-06-02,050-2608-5162,電車,150,1650,2300,8
渡辺 雅之,わたなべ まさゆき,長野県岡谷市加茂町1-3-3,32.78970,130.7417,1歳,男,D,2022-02-19,090-7427-0518,徒歩,50,1850,2750,4
澤田 耕,さわだ こう,神奈川県横浜市鶴見区下末吉2-3-14,33.23890,131.61240,79歳,男,A,1943-09-05,070-2591-4360,電車,180,1050,2100,10
齊藤 麻衣,さいとう まい,大阪府大阪市東淀川区小松1-2-9,31.91128,131.42398,88歳,女,F,1935-01-14,070-1553-2160,バス,40,1200,2400,9
川上 和広,かわかみ かずひろ,愛知県名古屋市中村区太閤2-3-9セイワパレス713,31.56090,130.55877,10歳,男,I,2012-06-26,050-2779-1867,自転車,80,1650,2750,1
里見 寛之,さとみ ひろゆき,兵庫県明石市小久保2-5-101,26.21227,127.68176,62歳,男,S,1960-07-11,050-0120-1362,徒歩,70,1550,2300,1
西本 宏昭,にしもと ひろあき,東京都狛江市東野川2-3-20ソルステージュ702,43.06488,141.3469,91歳,男,C,1932-03-02,090-0338-4722,電車,160,1450,2700,4
富井 順二,とみい じゅんじ,東京都文京区千石2-2-3,40.82464,140.74361,76歳,男,S,1946-10-02,050-0901-1984,徒歩,40,1500,2200,6
加藤 章子,かとう あきこ,北海道美唄市東一条北1-1-19ソルステージュ813,39.70385,141.1527,93歳,女,A,1930-01-23,050-4941-3078,自転車,50,1850,2100,6
青木 拓也,あおき たくや,大阪府大阪市港区弁天3-4-907,38.26850,140.87134,14歳,男,R,2008-07-12,090-9466-4080,電車,50,1600,2800,8
福重 正宏,ふくしげ まさひろ,茨城県日立市久慈町2-4-9ドムール813,39.71861,140.10268,36歳,男,T,1986-12-06,080-1363-8762,バス,60,1700,2300,1
小澤 章人,おざわ あきひと,大阪府大阪市淀川区木川東1-3-8,38.24088,140.36324,31歳,男,Q,1991-12-14,070-3336-7579,電車,120,1100,2600,4
大曽根 貴裕,おおそね たかひろ,東京都文京区小石川1-5-3,37.7512,140.46738,89歳,男,D,1933-11-13,070-4791-2634,自転車,90,1650,2800,5
五十嵐 裕子,いがらし ゆうこ,神奈川県横浜市港北区高田西3-2-4,36.34158,140.44631,33歳,女,D,1990-05-26,050-6797-8033,徒歩,70,1650,2900,1
古瀬 涼子,ふるせ りょうこ,東京都江東区北砂3-1-6ヴェルビュ606,36.56579,139.88373,56歳,女,R,1967-03-14,050-6936-8547,徒歩,50,1800,2850,2
坂口 正文,さかぐち まさふみ,埼玉県坂戸市西坂戸3-3-14,36.39165,139.06031,46歳,男,C,1977-02-11,070-6809-6695,電車,100,1850,2850,4
川北 剛久,かわきた たけひさ,北海道札幌市東区北十三条東3-2-8,35.85678,139.64874,38歳,男,K,1985-01-28,080-7158-5274,自転車,40,1150,2950,3
大島 正二,おおしま しょうじ,東京都新宿区新宿3-5-17,35.60450,140.12317,97歳,男,J,1925-08-24,080-7855-3639,電車,60,1100,2850,8
吉田 健史,よしだ たけし,東京都台東区元浅草4-2-8,35.68913,139.69179,90歳,男,S,1932-07-05,090-0264-1319,徒歩,90,1200,2900,3
狩野 巧,かの たくみ,神奈川県横浜市中区長者町1-2-4,35.44795,139.64270,23歳,男,I,1999-12-08,080-0393-0841,バス,150,1450,2250,4
多田 真輔,ただ しんすけ,神奈川県座間市相模が丘1-3-6,37.90266,139.02381,91歳,男,B,1932-04-06,050-3099-2974,自転車,90,1900,2150,10
日比 ゆう子,ひび ゆうこ,千葉県八千代市ゆりのき台1-1-11ブリッジコート704,36.69524,137.21111,21歳,女,M,2002-03-11,050-1461-4878,徒歩,50,1100,2050,9
岡 弘志,おか ひろし,北海道札幌市北区屯田四条2-2-20,36.59473,136.62545,46歳,男,O,1977-02-13,070-2710-4616,バス,140,1950,2050,1
木下 雄一郎,きのした ゆういちろう,東京都大田区西六郷4-2-4,36.06510,136.22136,71歳,男,P,1951-09-10,080-4523-3957,電車,100,1500,2950,4
内山 創,うちやま はじめ,福井県福井市上森田3-2-3プレサンスグラン707,35.66345,138.56871,6歳,男,S,2017-05-02,080-2290-7711,自転車,30,1600,2950,4
藤野 弥生,ふじの やよい,千葉県市川市北方町2-2-13,36.65164,138.18125,71歳,女,G,1952-05-18,080-9096-7287,徒歩,100,1900,2800,6
中嶋 千絵,なかじま ちえ,神奈川県川崎市宮前区東有馬1-3-18,35.39137,136.72276,83歳,その他・不明,Q,1939-10-12,070-5596-9064,徒歩,40,1700,2100,9
久米 翔,くめ しょう,東京都杉並区高円寺南1-3-4,34.97689,138.38326,8歳,男,M,2014-12-05,080-0597-4065,電車,160,1150,2250,6
鳥羽 恵津子,とば えつこ,宮城県仙台市青葉区中央1-3-9,35.18059,136.90661,70歳,女,S,1952-11-18,080-5399-0252,徒歩,60,1050,2800,10
小坂井 将,こざかい まさる,大阪府豊中市東豊中町3-4-16,34.73079,136.5089,5歳,男,C,2018-05-29,090-0046-0647,徒歩,170,1500,2400,3
佐藤 亜紀子,さとう あきこ,長崎県長崎市横尾2-4-608サンライフ805,35.00494,135.86852,40歳,女,P,1983-02-06,090-9276-2312,電車,70,1550,2350,1
浅井 博美,あさい ひろみ,福岡県糟屋郡篠栗町中央1-2-605,35.02119,135.75592,44歳,女,O,1979-03-20,070-2672-8872,電車,60,1350,2200,5
後藤 義也,ごとう よしや,東京都渋谷区千駄ヶ谷2-3-807アドリーム311,34.68618,135.52750,98歳,男,S,1925-05-06,080-6153-0069,バス,80,1050,2800,5
川田 明香,かわた さやか,東京都千代田区外神田3-5-9クレアガーデン814,34.69196,135.18374,98歳,女,I,1925-01-07,090-6407-3391,バス,170,1400,2500,3
山ノ井 幸太,やまのい こうた,新潟県新潟市東区東明3-5-8エスペランス104,34.68527,135.83234,77歳,男,M,1945-09-07,090-4676-0340,自転車,70,2000,3000,10
中川 哲哉,なかがわ てつや,北海道札幌市北区北十三条西1-2-9,34.22629,135.16751,87歳,男,N,1935-07-30,070-2671-2064,自転車,80,1950,2050,6
米永 とおる,よねなが とおる,東京都墨田区石原3-5-17,35.50338,134.23850,13歳,男,S,2010-03-23,050-7849-0020,徒歩,160,1650,2150,3
金子 賢治,かねこ けんじ,群馬県安中市安中4-2-6,35.47259,133.05092,60歳,男,K,1962-07-09,080-8813-7662,電車,50,1250,3000,3
西本 莉子,にしもと りこ,大阪府大阪市中央区本町3-2-18,34.66179,133.93561,0歳,女,H,2022-10-07,080-5734-5230,電車,90,1300,2050,4
松崎 周平,まつざき しゅうへい,東京都練馬区下石神井1-3-22,34.39666,132.45980,32歳,男,I,1991-02-26,050-3674-1202,徒歩,60,1300,2200,6
山口 高,やまぐち たかし,大阪府大阪市阿倍野区松崎町1-5-807ウォームスヴィル101,34.18548,131.47175,19歳,男,B,2003-10-23,080-0932-8971,徒歩,60,1700,2850,1
清水 梨沙,しみず りさ,大阪府大阪市福島区吉野3-1-1205,34.0655,134.55940,65歳,女,O,1957-07-27,080-9853-6242,徒歩,180,1450,2500,7
金田 昌弘,かねだ まさひろ,埼玉県上尾市柏座2-1-8,34.34038,134.04330,66歳,その他・不明,O,1956-11-19,080-6267-7980,自転車,70,1800,2550,6
大崎 茂樹,おおさき しげき,神奈川県藤沢市鵠沼桜が岡1-4-1203,33.84180,132.76684,70歳,男,F,1952-10-27,070-3683-4846,自転車,140,2000,2400,1
笹井 ケンイチ,ささい けんいち,大阪府大阪市中央区南船場2-5-5,33.55989,133.53124,19歳,男,R,2003-08-28,070-9530-0367,電車,30,1400,2100,6
前田 良太,まえだ りょうた,東京都墨田区両国2-5-1004,33.60616,130.41830,40歳,男,M,1983-03-20,090-5448-1470,バス,100,1650,2300,2
白坂 正孝,しらさか まさたか,北海道札幌市豊平区平岸二条1-2-1001,33.2499,130.29843,57歳,男,L,1965-08-19,070-5343-1100,バス,160,2000,2400,5
納富 祥子,のうとみ しょうこ,東京都江東区南砂4-2-6,32.74440,129.87397,32歳,女,K,1990-07-27,050-9319-6182,徒歩,110,1650,3000,9
池内 祐介,いけうち ゆうすけ,北海道札幌市手稲区手稲本町四条3-5-19,32.78940,130.74139,17歳,男,A,2006-02-16,050-9565-5922,徒歩,180,1350,2700,3
瀧澤 英彦,たきざわ ひでひこ,奈良県香芝市畑1-1-10,33.23825,131.61229,29歳,男,M,1993-08-27,050-2655-7327,自転車,160,1100,2600,3
片岡 哲也,かたおか てつや,神奈川県川崎市幸区塚越4-3-5ペルル716,31.91174,131.42322,8歳,男,O,2014-11-15,070-7082-5943,徒歩,110,1950,2700,5
岡本 瑞貴,おかもと みずき,埼玉県越谷市赤山町4-3-7,31.56096,130.5588,88歳,男,S,1934-06-24,070-0794-2146,電車,90,1200,2800,1
小林 敬,こばやし たかし,大阪府大阪市中央区高麗橋2-4-16,26.21261,127.68193,79歳,男,Q,1943-08-05,080-4622-8688,バス,20,2000,2400,9
田中 聡美,たなか さとみ,東京都港区赤坂4-1-8,34.97642,138.38356,50歳,女,A,1972-07-29,050-2292-1270,自転車,80,1100,2900,10
伊藤 靖子,いとう やすこ,兵庫県神戸市中央区北長狭通3-2-201,35.1802,136.90680,9歳,女,O,2013-09-25,080-6540-8637,自転車,70,1150,3000,7
牧野 聖子,まきの せいこ,愛知県一宮市篭屋1-3-8,34.73079,136.508100,97歳,女,Q,1926-03-08,070-0255-8740,自転車,130,1550,2600,7
今道 智,いまみち とも,東京都中央区築地3-3-17,35.00499,135.86886,23歳,男,P,2000-01-29,050-6548-0804,徒歩,20,1550,2700,3
露木 茂之,つゆき しげゆき,埼玉県所沢市小手指町1-1-6,35.02160,135.75516,92歳,男,A,1930-10-09,070-7354-7425,電車,50,1200,2650,6
尾崎 彩,おざき あや,神奈川県小田原市本町1-2-16エクセレンス410,34.6860,135.52764,10歳,女,J,2013-04-16,070-2288-1404,徒歩,90,1700,2200,5
山形 昭彦,やまがた あきひこ,兵庫県神戸市中央区磯上通1-5-401アーバニス714,34.69112,135.18320,47歳,男,H,1975-10-09,080-7076-3425,バス,70,1650,2650,1
村田 賢二,むらた けんじ,埼玉県川口市並木1-2-1203,34.68537,135.83219,95歳,その他・不明,P,1928-01-30,090-6578-7493,バス,140,1800,2200,7
舛田 隆史,ますだ たかし,東京都葛飾区東立石2-3-6ハイタウン114,34.22617,135.1677,32歳,男,T,1990-08-22,070-0131-8122,自転車,160,1350,2800,7
佐々木 敬子,ささき けいこ,福岡県太宰府市梅香苑2-3-8,35.50391,134.23845,44歳,その他・不明,Q,1979-03-14,080-8393-4419,徒歩,10,1700,2200,8
大下 創,おおした はじめ,大阪府大阪市中央区高麗橋2-4-1005グリーンマンション712,35.4727,133.05012,45歳,男,P,1978-05-29,050-5515-8062,バス,130,1200,2250,8
古田 哲,ふるた さとし,東京都港区南青山1-4-12,34.66147,133.93533,70歳,男,E,1952-06-12,080-7010-1671,バス,10,1350,2150,4
川口 梨恵,かわぐち りえ,宮崎県宮崎市生目台東4-3-4,34.39679,132.45931,67歳,女,J,1955-07-20,050-6851-2930,自転車,110,1350,2400,6
明石 佑介,あかし ゆうすけ,広島県福山市草戸町2-3-19,34.18589,131.47138,62歳,男,F,1960-09-21,090-3477-5492,バス,40,2000,2750,8
渋谷 鈴香,しぶや すずか,東京都新宿区北新宿3-4-1006,34.06591,134.55962,13歳,女,M,2010-05-18,080-8148-0175,電車,80,1150,2900,10
酒井 淳子,さかい じゅんこ,広島県福山市松浜町2-5-13,34.34024,134.04339,56歳,女,J,1967-02-19,080-2855-8503,自転車,180,1450,3000,1
岡田 陽介,おかだ ようすけ,愛知県名古屋市千種区末盛通4-3-10アパ814,33.8412,132.76617,10歳,男,J,2012-12-15,090-4109-5988,自転車,10,1350,2200,9
吉田 彩子,よしだ さいこ,神奈川県相模原市中央区東淵野辺3-2-10,33.55911,133.53115,60歳,女,F,1962-12-28,090-4866-5049,バス,70,1700,2800,6
吉澤 徹朗,よしざわ てつろう,大阪府大阪市淀川区宮原3-3-10,33.60628,130.41848,72歳,男,D,1950-09-07,090-2336-3174,自転車,110,1200,2500,4
伊藤 美穂子,いとう みほこ,東京都渋谷区神宮前1-3-5,33.2497,130.2987,30歳,女,N,1993-05-20,050-8550-3578,電車,40,1650,2600,1
武内 伸之,たけうち のぶゆき,東京都品川区南品川1-3-10,32.74482,129.87357,89歳,男,R,1933-09-20,080-9137-9646,徒歩,80,2000,2950,7
柳生 俊行,やぎゅう としゆき,東京都品川区上大崎1-1-10,32.78970,130.74153,95歳,男,D,1927-11-04,050-6487-2568,電車,180,1300,2500,6
柳 ゆかり,やなぎ ゆかり,東京都杉並区高円寺南2-2-9,33.23878,131.61293,25歳,女,N,1997-07-08,050-2076-4986,自転車,60,1500,2550,6
鈴木 和孝,すずき かずたか,東京都台東区浅草橋1-5-13,31.91157,131.42332,13歳,男,N,2010-04-30,070-0828-4767,バス,60,1400,2150,6
稲葉 薫,いなば かおる,群馬県前橋市南町3-1-302ドムールコスモス804,31.56062,130.55852,25歳,女,O,1997-08-11,080-8546-4793,電車,70,1950,2600,3
多根 博之,たね ひろゆき,東京都中野区中野2-5-13パレス105,26.21266,127.6819,59歳,男,A,1964-03-05,080-4928-3876,自転車,100,1900,2700,6
山田 直樹,やまだ なおき,東京都新宿区西新宿3-2-8,34.97644,138.38369,6歳,男,D,2017-04-05,070-9527-5932,徒歩,120,1250,2900,10
中西 邦彦,なかにし くにひこ,神奈川県横須賀市大津町4-3-10,35.18065,136.90643,17歳,男,Q,2005-07-19,070-4337-2119,バス,130,1800,2800,2
横山 佳奈,よこやま かな,静岡県静岡市葵区安西4-2-9,34.73011,136.50855,92歳,女,N,1930-07-14,050-1020-7478,自転車,20,1350,2550,9
奥田 樹里,おくだ じゅり,東京都新宿区高田馬場4-1-4,35.00427,135.86817,30歳,女,A,1993-02-16,090-8684-8154,電車,170,1950,2100,8
鈴木 由奈,すずき ゆな,埼玉県草加市弁天2-5-15,35.02163,135.75532,83歳,女,G,1939-06-19,070-2031-4081,自転車,130,1800,3000,7
森崎 浩二,もりさき こうじ,東京都渋谷区広尾2-2-22,34.68656,135.52762,40歳,男,Q,1982-09-17,050-8117-7584,自転車,10,1700,2300,9
林 勇人,はやし はやと,埼玉県川口市本町2-2-6,34.69114,135.1837,38歳,男,I,1985-04-08,070-3765-6877,徒歩,30,1300,2750,3
牛島 沙織,うしじま さおり,北海道札幌市南区澄川三条2-1-9,34.68553,135.83249,26歳,女,D,1996-10-06,070-8293-8857,電車,140,1850,2100,6
加藤 麻衣,かとう まい,北海道釧路市文苑2-4-20,34.2264,135.16792,29歳,女,T,1994-01-15,090-8511-2281,電車,100,2000,2450,2
佐藤 たかひろ,さとう たかひろ,福岡県福岡市中央区平尾2-5-19,35.50353,134.2380,74歳,男,O,1949-04-11,050-3476-7620,自転車,180,1900,2500,4
松下 育恵,まつした いくえ,東京都江戸川区西葛西3-5-5,35.4721,133.05047,99歳,女,E,1924-05-30,050-1061-2040,電車,150,1300,2450,9
松岡 洋祐,まつおか ようすけ,大阪府大阪市淀川区西中島2-5-8,34.66175,133.935100,29歳,男,R,1994-04-29,090-2951-4254,バス,70,1200,2050,5
高橋 久美子,たかはし くみこ,北海道恵庭市柏木町2-2-17,34.39645,132.45996,64歳,女,M,1958-07-10,050-8950-0357,自転車,160,1750,2950,1
中川 伸,なかがわ しん,愛知県名古屋市南区弥次ヱ町3-2-6,34.18577,131.47192,9歳,男,J,2014-03-22,080-8654-3440,自転車,60,1200,2500,1
三浦 哲也,みうら てつや,東京都東村山市青葉町2-1-3,34.0656,134.55912,51歳,男,A,1971-10-23,070-4139-0149,徒歩,110,1800,2950,7
山際 哲也,やまぎわ てつや,東京都昭島市玉川町4-1-8,34.34047,134.04390,75歳,男,C,1947-09-04,080-3235-3857,自転車,120,1600,2300,1
亀山 和成,かめやま かずなり,東京都港区新橋1-2-3,33.8417,132.76698,11歳,男,G,2012-03-21,050-1132-5408,自転車,50,1950,2250,1
上杉 亮太,うえすぎ りょうた,北海道函館市本通3-1-505,33.55923,133.53197,26歳,男,K,1997-01-21,050-9122-0214,電車,120,1400,2650,10
中居 幸治,なかい こうじ,千葉県千葉市美浜区磯辺1-2-15ロイヤルハイツ614,33.60633,130.41810,12歳,男,C,2011-05-11,080-2521-7339,徒歩,150,1900,2150,1
林 憲治,はやし けんじ,東京都港区赤坂1-1-4セントポリア415,33.2491,130.29842,29歳,男,G,1994-01-10,070-7037-7418,電車,180,1100,2950,6
池永 佳子,いけなが よしこ,佐賀県佐賀市水ヶ江2-1-3,32.74461,129.8731,46歳,女,N,1977-05-17,080-4428-6255,電車,70,1150,2650,2
田中 貴宏,たなか たかひろ,兵庫県神戸市中央区元町通1-5-14,32.78950,130.74168,17歳,男,T,2005-08-31,080-0631-4914,徒歩,150,1150,2550,4
小山 佳子,こやま よしこ,東京都三鷹市下連雀4-2-8,33.23888,131.61211,36歳,女,N,1987-04-27,080-7800-7970,電車,170,1500,2900,7
西村 愛子,にしむら あいこ,愛知県名古屋市西区枇杷島2-1-9,31.9111,131.42372,48歳,女,K,1975-03-31,070-4030-5341,電車,100,1300,2750,3
斎藤 和子,さいとう かずこ,福岡県福岡市西区姪浜駅南4-3-4,31.56011,130.55825,32歳,女,E,1991-05-02,080-8078-2727,自転車,100,1400,2950,3
渡邊 優,わたなべ ゆう,岐阜県岐阜市西荘3-1-13,26.21293,127.68175,1歳,男,M,2021-11-24,080-0277-9970,徒歩,170,1500,2950,10
藤井 裕司,ふじい ゆうじ,東京都江戸川区春江町3-2-5,34.9769,138.38366,56歳,男,D,1967-02-06,050-6372-5383,電車,90,2000,2700,9
寺本 桂子,てらもと けいこ,東京都杉並区永福2-4-201リビオ607,35.18049,136.90673,97歳,女,D,1925-06-15,090-2164-8263,バス,60,1700,2200,9
西 和,にし かず,大阪府大阪市中央区博労町1-5-6,34.73017,136.50814,35歳,女,D,1987-08-31,090-8281-8828,電車,140,1200,2200,4
本城 和宏,ほんじょう かずひろ,愛知県一宮市本町1-3-7,35.00497,135.86895,55歳,男,M,1967-11-19,090-1632-2972,自転車,40,1700,2200,10
和田 暢之,わだ のぶゆき,福岡県福岡市南区和田3-2-4,35.02126,135.75517,66歳,男,E,1957-02-16,080-3715-3130,徒歩,140,1550,2450,6
池 正和,いけ まさかず,千葉県市川市南八幡3-4-8,34.6861,135.52781,7歳,男,N,2016-04-14,080-5563-5003,自転車,150,1050,2350,7
河本 篤,かわもと あつし,東京都杉並区高円寺南2-5-11グリーンエクセル614,34.69115,135.18332,2歳,男,E,2020-09-22,050-6456-9361,自転車,90,1550,2350,9
山家 祐太,やまが ゆうた,神奈川県藤沢市辻堂元町2-3-1203,34.68593,135.83231,84歳,男,A,1939-04-16,090-7912-2728,徒歩,70,1850,2900,4
井上 恭子,いのうえ きょうこ,愛知県名古屋市港区当知2-5-16サンシャイン609,34.22661,135.16774,85歳,女,R,1938-05-07,070-0033-8376,電車,130,1600,2500,2
酒井 淳二,さかい じゅんじ,福岡県大野城市錦町2-5-21,35.50397,134.23842,53歳,男,C,1970-01-11,050-6371-4399,自転車,10,1100,2850,9
倉石 健二,くらいし けんじ,東京都渋谷区本町1-5-13ドルフ804,35.47232,133.05071,71歳,男,R,1951-07-13,070-9402-6039,徒歩,10,1350,2150,1
中谷 毅,なかたに たかし,栃木県宇都宮市富士見が丘1-4-10,34.66162,133.93574,89歳,男,S,1934-05-07,090-4564-1495,電車,110,1900,2550,4
岡田 新,おかだ しん,東京都府中市日新町1-3-7,34.39675,132.45946,60歳,男,E,1962-11-30,090-5190-3512,バス,110,1050,2550,4
尾身 正広,おみ まさひろ,千葉県船橋市夏見台3-1-10,34.18572,131.47129,31歳,男,H,1991-10-02,090-8452-4347,徒歩,180,1500,2350,10
越 晋,こし すすむ,大阪府大阪市生野区巽東1-1-21,34.06537,134.55974,41歳,男,L,1982-05-22,070-6170-3577,バス,130,1650,2200,3
宇野 真之,うの まさゆき,大阪府大阪市平野区加美東3-3-104,34.34044,134.04392,66歳,男,J,1957-01-08,070-0548-8416,自転車,40,1500,2500,9
吉山 大貴,よしやま たいき,東京都葛飾区金町2-3-4,33.84181,132.76655,25歳,男,J,1998-03-01,070-0460-2964,徒歩,80,1800,2900,9
森 大介,もり だいすけ,福岡県那珂川市今光1-1-22ヴェルドール807,33.55941,133.53179,36歳,その他・不明,R,1986-09-18,080-5142-6704,徒歩,30,1500,2800,3
千野 玲奈,ちの れな,愛知県豊田市昭和町2-2-10,33.60688,130.41891,88歳,女,Q,1934-10-09,050-2167-5766,電車,80,1850,2950,9
吉田 直人,よしだ なおと,東京都豊島区東池袋3-2-904,33.2494,130.29857,55歳,男,Q,1967-12-03,090-2995-2884,自転車,140,1050,2500,2
藤田 敏彦,ふじた としひこ,大阪府八尾市緑ヶ丘3-3-15ロイヤル115,32.7444,129.87395,45歳,男,G,1977-06-21,070-8240-3531,徒歩,150,1400,2150,1
湯谷 剛弘,ゆたに たけひろ,千葉県木更津市東太田3-1-7,32.78940,130.74184,5歳,男,O,2018-04-15,050-3621-1374,徒歩,30,1200,2300,7
金井 俊輔,かない しゅんすけ,東京都江東区森下3-5-5,33.23878,131.61229,76歳,男,T,1946-08-30,090-7299-4479,徒歩,160,1250,2200,9
加藤 淳平,かとう じゅんぺい,北海道釧路市星が浦南4-1-3,31.91140,131.42313,71歳,男,P,1952-02-28,090-9451-1810,自転車,130,1300,2650,4
佐藤 哲朗,さとう てつろう,沖縄県那覇市首里金城町1-1-10,31.56016,130.5588,80歳,男,G,1942-09-09,080-6643-8983,自転車,160,1500,2550,4
平石 光,ひらいし ひかる,東京都港区新橋2-2-9,26.21299,127.68140,12歳,その他・不明,T,2011-01-17,090-4878-5942,バス,130,1100,2750,10
高橋 瞬,たかはし しゅん,青森県八戸市石堂2-5-6,43.06436,141.34657,45歳,男,H,1977-08-20,080-2842-6122,バス,140,1150,2450,10
吉田 暁,よしだ あき,東京都千代田区神田佐久間町2-1-3ブラームス509,40.82440,140.74344,87歳,その他・不明,A,1936-02-15,090-7696-0016,バス,20,1700,2800,8
中田 詩織,なかた しおり,兵庫県神戸市垂水区平磯1-3-304,39.70342,141.15220,61歳,女,N,1961-11-16,050-3573-2231,バス,130,1150,2550,7
石塚 メグミ,いしづか めぐみ,大阪府大阪市鶴見区横堤3-1-7,38.26885,140.87118,26歳,女,C,1996-12-17,070-0187-8918,徒歩,60,1800,2500,6
大澤 由紀,おおさわ ゆき,東京都中央区八丁堀2-5-21,39.71858,140.10256,45歳,女,N,1978-04-10,090-5960-8825,電車,180,1500,2550,6
三島 大貴,みしま たいき,東京都港区赤坂2-3-5ジェイグラン110,38.24018,140.36327,52歳,男,R,1971-05-25,090-6193-2955,バス,170,1750,2400,7
安川 一彦,やすかわ かずひこ,神奈川県横浜市都筑区東山田2-4-12,37.75172,140.46794,1歳,男,A,2021-12-09,050-2810-6016,バス,80,1550,2850,9
古田 隆夫,ふるた たかお,福岡県福岡市博多区博多駅南1-4-1208,36.34178,140.44698,2歳,男,Q,2020-06-23,070-0565-8465,電車,160,1650,2550,2
澤田 亜由美,さわだ あゆみ,埼玉県さいたま市浦和区木崎2-3-17,36.56522,139.88353,34歳,女,K,1988-10-20,090-6192-3667,電車,160,1600,2800,4
松井 良一,まつい りょう,東京都中央区日本橋本町2-3-1108,36.39127,139.06037,79歳,男,L,1943-10-13,090-4751-7618,電車,70,1800,2100,1
佐藤 あずさ,さとう あずさ,福岡県宗像市城西ヶ丘3-3-5ラフォーレ702,35.85697,139.6485,56歳,女,J,1967-03-12,090-4523-4233,徒歩,130,1650,3000,1
長倉 美和,ながくら みわ,広島県広島市南区皆実町4-1-10,35.60455,140.12350,28歳,女,L,1994-08-06,080-4345-6870,自転車,40,1500,2250,10
峯尾 サキ,みねお さき,大阪府大阪市中央区南船場2-2-7,35.68973,139.69179,81歳,その他・不明,S,1942-01-06,080-4257-4004,電車,50,1650,2300,7
加納 香織,かのう かおり,岐阜県岐阜市芥見1-2-4,35.44743,139.64266,70歳,女,N,1953-03-28,080-5529-6349,徒歩,140,1400,2100,2
谷村 匡,たにむら ただし,岡山県岡山市北区今4-2-5,37.90227,139.0231,26歳,男,C,1996-06-18,080-7261-6066,自転車,160,1200,2050,10
秋山 誠二,あきやま せいじ,東京都世田谷区粕谷3-1-309ソレイユ203,36.69592,137.21190,38歳,男,N,1984-07-29,070-9857-6443,徒歩,10,1050,2950,8
小栗 玲子,おぐり れいこ,東京都足立区六木3-2-1101,36.59411,136.62557,41歳,女,H,1981-07-24,050-9449-7812,徒歩,110,1950,2200,8
吉田 大悟,よしだ だいご,東京都渋谷区代々木3-3-5,36.06526,136.22113,15歳,男,T,2007-12-28,080-1825-4431,バス,30,1800,2050,8
青山 剛,あおやま つよし,東京都渋谷区神宮前2-2-10,35.66352,138.56851,27歳,男,M,1995-09-06,070-9335-7646,バス,90,1900,2600,8
野村 恭子,のむら きょうこ,東京都目黒区上目黒1-5-806,36.65198,138.18199,4歳,女,H,2018-11-22,050-5505-5917,自転車,120,1050,2100,9
廣瀬 信夫,ひろせ のぶお,東京都豊島区池袋本町3-3-3,35.39195,136.72235,2歳,男,L,2020-10-22,050-8641-0022,電車,140,1450,2350,1
久保 晃一,くぼ こういち,東京都足立区江北4-3-8,34.97634,138.38351,78歳,男,C,1944-08-10,090-1317-1660,徒歩,130,1400,2800,10
久保田 京子,くぼた きょうこ,愛知県名古屋市中村区大秋町1-3-8,35.18037,136.90622,4歳,女,C,2019-05-30,050-6206-7557,電車,10,1900,2600,6
伊奈 泰広,いな やすひろ,大阪府大阪市北区西天満1-4-19,34.73012,136.50835,34歳,その他・不明,A,1988-09-18,090-5531-1336,徒歩,140,1200,2100,10
藤野 文彦,ふじの ふみひこ,岐阜県多治見市音羽町1-3-9,35.00427,135.86848,10歳,男,D,2013-02-02,080-0332-0390,徒歩,170,1150,2100,3
白井 宏章,しらい ひろあき,石川県金沢市西念2-4-22,35.02194,135.75589,48歳,男,L,1975-04-16,090-6389-7633,電車,40,1450,2250,2
秋山 祥子,あきやま しょうこ,北海道札幌市厚別区厚別北五条1-2-206,34.68653,135.52728,90歳,女,J,1933-03-12,070-6873-2941,バス,80,1250,2900,7
横川 麻美,よこかわ あさみ,北海道北斗市七重浜1-4-9,34.69165,135.18370,79歳,女,I,1943-08-14,090-0310-4803,徒歩,170,1500,2950,5
兒玉 佳史,こだま よしふみ,千葉県市川市大野町3-3-1007,34.68518,135.83219,43歳,その他・不明,C,1979-08-07,050-1738-9604,自転車,130,1700,2500,10
板倉 淳,いたくら じゅん,東京都渋谷区神宮前2-1-6,34.22616,135.16711,39歳,男,R,1983-07-21,080-0120-8854,バス,130,1350,2550,1
中山 なお,なかやま なお,愛知県名古屋市千種区東山通3-2-21,35.50390,134.23889,75歳,男,N,1948-06-02,050-4471-9498,徒歩,40,1350,2500,1
後藤 夕紀,ごとう ゆうき,山口県下関市竹崎町1-5-21,35.47278,133.05063,99歳,女,S,1924-02-05,090-6722-4972,バス,50,1550,2400,5
相川 俊,あいかわ しゅん,熊本県熊本市東区東町1-3-106,34.66157,133.93565,99歳,男,H,1924-04-21,050-3154-3271,電車,60,1750,2550,8
山口 久美子,やまぐち くみこ,北海道札幌市中央区南一条東1-4-22,34.39681,132.45981,35歳,女,N,1987-10-16,080-8966-5801,バス,90,1150,2800,7
高浪 珠実,たかなみ たまみ,愛知県名古屋市名東区高針1-3-9,34.18527,131.47152,90歳,女,J,1932-09-15,080-2680-4851,電車,80,1100,2500,4
大屋 麻美子,おおや まみこ,兵庫県神戸市中央区琴ノ緒町2-2-9,34.06573,134.55958,80歳,女,J,1942-08-15,050-1340-8777,電車,20,1300,2900,5
前田 弘文,まえだ ひろふみ,千葉県船橋市西船1-1-409,34.34017,134.04319,58歳,男,Q,1964-07-13,050-5820-6131,自転車,40,1100,2850,1
花輪 昌明,はなわ まさあき,東京都豊島区池袋1-4-1101ワコーレ111,33.84170,132.76668,48歳,男,D,1974-11-14,070-2492-6034,自転車,100,1200,2350,3
福田 啓子,ふくだ けいこ,大阪府大阪市中央区本町1-5-1207,33.55942,133.53169,55歳,女,L,1967-12-30,090-4766-5923,自転車,150,1350,2800,3
山本 康史,やまもと やすし,長野県千曲市上山田温泉3-4-14,33.60622,130.41847,4歳,男,M,2018-11-26,070-0518-7588,徒歩,60,1250,2950,6
小川 正孝,おがわ まさたか,東京都港区虎ノ門4-2-7,33.24956,130.29837,8歳,男,S,2014-07-02,090-0266-4495,徒歩,70,1750,2050,8
岩井 啓司,いわい けいじ,福岡県福岡市東区千早2-5-11,32.74442,129.87393,35歳,男,G,1988-04-25,070-9865-1619,自転車,180,1900,2150,1
松岡 なおこ,まつおか なおこ,滋賀県高島市安曇川町末広2-5-1202エーベル403,32.78919,130.74186,29歳,女,A,1993-12-26,080-2914-7633,バス,80,1250,2400,10
関川 祐希,せきかわ ゆき,埼玉県さいたま市浦和区岸町1-3-20サントピア303,33.23822,131.61226,65歳,男,I,1958-02-08,070-3668-3539,自転車,100,2000,2800,2
樋口 遼,ひぐち りょう,兵庫県尼崎市南武庫之荘1-2-4,31.91193,131.42327,31歳,男,A,1991-12-19,090-9264-3443,徒歩,70,1700,2250,9
島袋 由起子,しまぶくろ ゆきこ,北海道札幌市豊平区平岸一条2-2-14,31.5608,130.55816,4歳,女,Q,2019-03-31,090-7439-8817,バス,100,1150,2150,1
高松 さやか,たかまつ さやか,大阪府大阪市東淀川区小松1-2-9,26.21232,127.6813,25歳,女,I,1997-09-21,090-6564-2619,徒歩,80,1950,3000,4
宮本 明子,みやもと あきこ,静岡県島田市稲荷3-2-5,34.97666,138.38319,98歳,女,Q,1924-06-23,050-7781-2970,徒歩,60,1650,2500,2
北原 俊和,きたはら としかず,東京都新宿区下落合4-2-4アズ403,35.18076,136.90663,62歳,男,F,1960-06-15,070-0026-0594,バス,70,1650,2250,2
松原 勉,まつばら つとむ,埼玉県さいたま市北区宮原町3-3-8,34.73088,136.50887,29歳,男,P,1994-03-27,080-0358-7090,自転車,150,1350,2600,1
今田 宗一郎,いまだ そういちろう,千葉県四街道市鷹の台4-2-3,35.00412,135.86884,38歳,男,J,1985-05-08,070-3148-0922,バス,120,1900,2450,9
高安 和樹,たかやす かずき,和歌山県和歌山市新中通2-5-17,35.02130,135.75582,88歳,男,I,1935-04-29,070-2415-2220,徒歩,80,1450,2750,9
黒瀬 加奈子,くろせ かなこ,愛媛県今治市国分3-3-509,34.68695,135.52760,100歳,女,H,1923-04-04,050-5953-3548,自転車,160,1050,2300,8
中島 健,なかじま けん,東京都町田市金森1-4-6,34.69112,135.18370,6歳,男,E,2016-11-30,080-4919-9228,徒歩,140,1950,2700,4
橋詰 健太郎,はしづめ けんたろう,千葉県船橋市新高根2-2-901,34.68586,135.83238,72歳,男,P,1950-12-28,080-4895-6085,自転車,100,1150,2550,9
内藤 ひろみ,ないとう ひろみ,大阪府池田市畑1-4-4,34.2263,135.16788,56歳,女,K,1966-11-30,050-6234-2015,徒歩,170,1850,2200,4
山本 俊,やまもと しゅん,大阪府大阪市北区大淀中1-2-5ヴィラデステ403,35.50397,134.2385,19歳,男,T,2004-04-03,090-1572-4701,自転車,60,1050,2850,3
羽山 啓史,はやま ひろふみ,福岡県福岡市城南区別府4-2-5,35.47227,133.0502,9歳,男,I,2014-02-20,050-3291-0624,徒歩,180,1800,2150,6
飯塚 康友,いいづか やすとも,東京都荒川区荒川1-1-15,34.66185,133.93519,60歳,男,H,1962-10-28,080-6948-2662,バス,150,1100,2900,6
新家 伸一,しんや しんいち,大阪府大阪市福島区福島1-2-17,34.39613,132.45992,1歳,男,Q,2022-03-16,080-5058-2721,バス,160,1200,2950,2
西森 亮,にしもり りょう,東京都大田区山王1-5-8,34.18556,131.47140,83歳,男,J,1940-04-15,050-2828-8359,徒歩,140,1700,2550,10
北村 貴志,きたむら たかし,東京都目黒区青葉台3-2-1006,34.0652,134.55970,66歳,男,C,1956-11-23,050-6463-8492,自転車,120,1600,2500,5
古川 一成,ふるかわ いっせい,滋賀県草津市平井1-4-20,34.34019,134.0431,11歳,男,H,2011-11-30,050-4377-1428,自転車,10,1700,2300,8
山本 和恵,やまもと かずえ,兵庫県神戸市兵庫区松原通2-3-4,33.84174,132.76634,95歳,女,I,1927-10-26,090-9111-2028,徒歩,150,1200,2550,3
高瀬 ゆかり,たかせ ゆかり,大阪府大阪市西区立売堀3-1-7,33.55923,133.53150,28歳,女,T,1995-04-13,070-5237-1779,徒歩,60,1450,2900,8
原田 友美,はらだ ゆみ,兵庫県宝塚市逆瀬台1-2-9,33.60682,130.41847,46歳,女,R,1976-11-25,070-8968-4982,自転車,120,1300,2500,4
繁田 今日子,しげた きょうこ,神奈川県川崎市幸区中幸町2-2-9プラウドタワー703,33.24913,130.29876,36歳,女,R,1987-03-05,090-9765-8064,電車,140,1450,2450,4
望月 大,もちづき だい,東京都品川区荏原1-4-10,32.74425,129.87380,66歳,男,H,1957-05-08,090-0412-6530,バス,90,1750,2650,5
伊藤 健二,いとう けんじ,愛知県名古屋市守山区小幡1-3-3,32.78989,130.7411,7歳,男,J,2015-10-30,050-1414-0228,自転車,180,1650,2400,9
目黒 映子,めぐろ えいこ,愛知県名古屋市北区辻本通2-1-14セレブコート303,33.23826,131.61255,29歳,女,O,1994-03-08,090-8544-9245,徒歩,30,1650,2500,5
千代 哲也,ちよ てつや,奈良県奈良市大宮町2-5-22,31.91119,131.42394,67歳,男,L,1955-07-22,090-5216-0636,徒歩,30,2000,2900,2
石川 悟史,いしかわ さとし,大阪府大阪市東住吉区南田辺1-4-809,31.56097,130.55815,99歳,男,I,1924-02-19,050-3890-1604,徒歩,30,1900,2950,3
本庄 和弘,ほんじょう かずひろ,広島県呉市海岸4-1-6,26.21295,127.68121,84歳,男,E,1938-12-30,070-8835-4447,電車,40,1200,2650,1
柳生 哲明,やぎゅう てつあき,東京都豊島区西池袋2-3-20,34.97681,138.38371,95歳,男,E,1928-04-13,050-3057-6210,徒歩,70,1350,2100,1
岡 悠介,おか ゆうすけ,愛知県半田市白山町3-1-9,35.18022,136.90679,9歳,男,P,2013-11-13,050-7170-6152,自転車,130,1750,2800,4
松原 薫,まつばら かおる,宮崎県延岡市緑ケ丘1-3-3,34.73034,136.5086,19歳,男,S,2004-04-12,050-8715-8434,バス,100,1650,2150,9
高野 真里子,たかの まりこ,北海道帯広市東五条南3-4-11アーバンライフ802,35.00410,135.86840,16歳,女,C,2006-09-09,080-5772-3938,電車,30,1650,2200,2
篠原 康夫,しのはら やすお,東京都渋谷区千駄ヶ谷3-4-19,35.02183,135.75554,56歳,男,L,1966-12-31,080-1238-0092,バス,90,1300,2350,4
渡部 淳,わたなべ じゅん,埼玉県川口市青木3-2-3,34.68679,135.52724,40歳,男,R,1982-10-31,090-8195-5671,自転車,40,1250,2250,10
石井 裕二,いしい ゆうじ,東京都新宿区四谷1-3-803エフコート201,34.6918,135.18314,47歳,男,A,1976-03-06,090-2656-1253,電車,10,1200,2600,4
島尻 正和,しまじり まさかず,東京都練馬区春日町2-3-4,34.68511,135.83260,3歳,男,H,2020-02-25,070-9083-2379,電車,60,1850,2750,1
西村 晃之,にしむら てるゆき,北海道札幌市西区八軒十条西2-1-7,34.22652,135.16788,53歳,男,J,1970-05-14,070-3804-6436,電車,90,2000,2600,2
平松 有子,ひらまつ ゆうこ,愛知県名古屋市港区小碓3-3-6,35.50349,134.2383,41歳,女,M,1981-08-04,050-9134-8153,徒歩,100,1200,2950,1
小笠原 浩子,おがさわら ひろこ,東京都世田谷区世田谷3-5-6サニーフラット311,35.47215,133.05024,32歳,女,N,1990-06-11,070-9796-5760,徒歩,170,1250,2300,6
山本 文夫,やまもと ふみお,愛知県名古屋市西区大野木2-1-10,34.6619,133.93517,15歳,男,O,2008-03-06,090-0100-1314,自転車,100,1300,2650,8
梅田 美樹子,うめだ みきこ,千葉県成田市公津の杜2-4-8,34.39630,132.45955,35歳,女,G,1987-08-30,070-6817-7216,バス,150,1250,2050,5
竹内 良,たけうち りょう,熊本県熊本市東区小峯2-3-301パレスエクセル204,34.18580,131.47198,42歳,男,A,1980-11-13,080-5725-6498,徒歩,90,1350,2500,9
平 春夫,たいら はるお,兵庫県神戸市東灘区魚崎中町1-4-18,34.06527,134.55927,82歳,男,Q,1940-06-17,050-8762-6895,電車,160,1950,2550,5
石井 茂,いしい しげる,神奈川県横浜市中区南仲通2-3-9,34.34064,134.04316,75歳,男,K,1947-08-04,070-9653-3575,徒歩,90,1650,2350,9
木村 奈央子,きむら なおこ,東京都足立区中央本町2-4-106,33.84174,132.76613,86歳,女,P,1937-02-24,050-4333-0347,電車,170,1700,3000,4
吉澤 雄飛,よしざわ ゆうひ,福岡県福岡市博多区博多駅前1-2-19,33.55964,133.53189,86歳,男,M,1937-03-01,090-9386-9657,電車,110,1750,2800,8
池本 健博,いけもと たけひろ,千葉県市川市北方町2-1-10,33.60660,130.41874,26歳,男,H,1996-11-01,050-0811-2812,徒歩,80,1950,2250,9
久米 章宏,くめ あきひろ,福岡県福岡市西区姪の浜2-2-3,33.24965,130.29867,46歳,男,T,1977-04-08,070-7666-5761,バス,10,1200,2150,10
阿部 博司,あべ ひろし,大阪府吹田市山田東2-2-16,32.74422,129.87342,82歳,男,O,1941-02-21,090-0632-1921,徒歩,30,1550,3000,8
安田 亜弥,やすだ あや,北海道釧路市入舟2-3-7,32.78975,130.74129,78歳,女,C,1945-02-26,050-2710-5595,徒歩,110,1750,2600,7
長谷川 敏郎,はせがわ としろう,大阪府守口市梶町4-2-7,33.23857,131.61254,94歳,男,G,1928-09-08,080-4001-8641,自転車,130,1700,2950,6
小嶋 歩,こじま あゆみ,東京都港区芝2-3-22,31.91137,131.4233,38歳,男,P,1984-10-22,090-7666-4015,徒歩,40,1700,2150,9
益田 亮介,ますだ りょうすけ,東京都足立区西伊興3-3-4,31.56069,130.55832,98歳,男,K,1924-10-25,090-8300-7314,電車,170,1500,2450,10
宮野 朝美,みやの あさみ,大阪府柏原市大県1-1-17,26.21270,127.68147,97歳,女,Q,1925-12-06,070-1813-2357,徒歩,180,1950,2200,3
藤本 新太郎,ふじもと しんたろう,埼玉県北本市高尾1-1-5,34.97655,138.38336,44歳,男,F,1979-03-25,070-7254-8388,徒歩,180,1900,2400,4
新谷 和子,しんたに かずこ,東京都杉並区久我山4-1-10,35.18091,136.9064,49歳,女,I,1973-11-10,050-3146-4954,バス,170,1100,2900,3
大久保 明寛,おおくぼ あきひろ,兵庫県神戸市西区月が丘3-2-7,34.73098,136.50826,62歳,男,K,1961-02-26,070-9280-8546,徒歩,30,1200,2350,2
大橋 百恵,おおはし ももえ,東京都渋谷区恵比寿2-5-106,35.00410,135.86855,89歳,女,T,1933-12-23,050-0981-5675,自転車,110,1650,2950,1
松田 大介,まつだ だいすけ,愛知県名古屋市中村区名駅南3-3-7,35.02170,135.75558,95歳,男,H,1928-03-25,050-6699-7872,自転車,10,1300,2550,2
村上 光昭,むらかみ みつあき,東京都港区港南2-2-5,34.68625,135.52715,93歳,男,K,1929-10-28,050-4314-6040,自転車,130,1250,2950,1
高木 政光,たかぎ まさみつ,茨城県牛久市ひたち野西2-2-3,34.69124,135.18322,42歳,男,L,1980-09-30,050-6305-4136,バス,180,1250,2450,5
楠山 義信,くすやま よしのぶ,新潟県新発田市豊町1-3-608ニチモグリーンタウン713,34.68571,135.83227,68歳,男,E,1955-02-27,070-8646-2878,徒歩,110,1100,2150,6
吉田 暁,よしだ あき,東京都世田谷区野沢3-4-9,34.22673,135.16764,45歳,男,P,1977-09-14,050-5926-4786,電車,80,1100,2100,4
佐々木 尚史,ささき たかし,東京都葛飾区立石3-1-8アジュール701,35.50346,134.23898,75歳,男,D,1947-06-24,090-2708-2200,バス,30,1350,2800,1
山脇 一樹,やまわき かずき,東京都品川区東大井1-4-101,35.47212,133.05095,75歳,男,L,1947-06-19,050-5512-9223,電車,180,1400,2300,9
高橋 貴子,たかはし たかこ,神奈川県横浜市港南区日限山3-4-12,34.66176,133.93554,33歳,女,C,1990-05-13,090-7307-5022,バス,70,1700,2650,1
村井 つぐみ,むらい つぐみ,東京都渋谷区恵比寿3-2-5,34.39655,132.45991,62歳,女,L,1960-07-15,090-0772-0512,徒歩,60,1750,2950,1
野口 一之,のぐち かずゆき,東京都中央区日本橋本町2-3-1108,34.18556,131.4717,98歳,男,J,1924-09-17,070-1327-1946,徒歩,100,1600,2800,3
福田 和子,ふくだ かずこ,東京都台東区台東2-3-6,34.06593,134.55979,49歳,女,S,1973-11-12,050-7589-2807,バス,150,1850,2150,8
設楽 香織,したら かおり,茨城県取手市新町1-1-13,34.34088,134.04399,77歳,女,R,1946-03-08,080-7751-4972,自転車,50,1650,2700,8
神田 貴,かんだ たかし,東京都渋谷区千駄ヶ谷3-5-10,33.84170,132.76688,100歳,男,B,1923-02-18,080-2033-6584,バス,140,1800,2450,3
高橋 一晃,たかはし かずあき,東京都港区虎ノ門3-4-16,33.55950,133.53170,35歳,男,B,1988-03-18,070-1192-3445,徒歩,110,1200,2500,6
三浦 実,みうら みのる,東京都江東区東陽2-2-6シーサイドプレイス606,33.60654,130.41860,48歳,男,K,1974-12-31,050-7397-9613,自転車,40,1600,2350,9
羽鳥 芳弘,はとり よしひろ,北海道旭川市豊岡五条1-5-13ラジュール715,33.249100,130.2989,66歳,男,L,1957-05-09,050-1880-0127,バス,170,2000,2800,6
和田 晃二,わだ こうじ,東京都新宿区西新宿2-3-19,32.74418,129.8734,47歳,男,D,1975-07-04,090-7117-9666,バス,140,2000,2450,3
真柄 陽子,まがら ようこ,千葉県浦安市猫実2-4-19,32.78940,130.74186,0歳,女,G,2023-01-03,070-4136-8382,電車,30,1450,2050,10
山岡 智章,やまおか ともあき,福岡県福岡市東区多の津2-3-19ヴェルドール701,33.2387,131.61232,22歳,男,K,2000-08-04,080-8152-2559,電車,150,1550,2400,5
小山 真知子,こやま まちこ,大阪府大阪市中央区久太郎町4-3-9,31.91147,131.42361,86歳,女,P,1936-11-25,090-6552-0193,電車,170,1900,2450,10
富田 郁美,とみた いくみ,東京都足立区古千谷本町1-1-17ディオフェルティ107,31.56098,130.55822,41歳,女,L,1981-10-01,090-1106-4876,自転車,180,1400,3000,4
中森 和樹,なかもり かずき,東京都江東区北砂3-3-10,26.2122,127.68151,62歳,男,K,1961-01-26,070-5342-7777,徒歩,160,1300,2350,2
棚橋 智彦,たなはし ともひこ,東京都杉並区高円寺北1-4-8,43.06432,141.34691,1歳,男,G,2021-10-10,070-6146-9479,徒歩,10,1350,2350,2
増田 俊弘,ますだ としひろ,千葉県流山市南流山3-1-22,40.82489,140.74361,21歳,男,N,2001-08-08,050-3494-8447,徒歩,160,1750,2450,2
加藤 かずえ,かとう かずえ,岐阜県瑞浪市一色町1-2-7ベルレーヴ105,39.70364,141.1524,58歳,女,P,1964-08-21,050-4413-0642,電車,80,1600,2600,3
川又 雄一,かわまた ゆういち,東京都港区虎ノ門1-2-9,38.26873,140.87178,78歳,男,I,1944-12-29,090-1930-0338,徒歩,40,1800,2850,5
伊藤 聡子,いとう さとこ,大阪府大阪市鶴見区浜2-5-1109,39.71898,140.10246,88歳,女,K,1934-12-29,090-6731-9804,バス,170,1100,2350,8
井戸 秀,いど ひで,北海道札幌市南区澄川三条2-1-9,38.24084,140.36358,17歳,男,J,2006-01-18,070-4524-1581,徒歩,170,1400,2850,10
柴村 勇人,しばむら はやと,石川県金沢市湊1-4-18,37.75165,140.46754,1歳,男,C,2021-10-09,090-7377-7635,バス,110,1400,2500,9
内藤 善久,ないとう よしひさ,大阪府大阪市平野区平野東3-4-10,36.34158,140.44667,3歳,男,H,2020-01-12,080-3025-7726,電車,70,1150,2950,10
佐藤 由紀子,さとう ゆきこ,広島県廿日市市阿品1-2-3,36.5652,139.88345,85歳,女,H,1937-08-30,050-3205-1470,電車,80,1150,2200,5
川井 健一,かわい けんいち,福岡県大野城市白木原4-1-4グランスイート206,36.39116,139.06045,26歳,男,K,1996-09-14,070-3866-4039,徒歩,10,1950,2500,8
井上 隆行,いのうえ たかゆき,愛知県名古屋市天白区元八事1-3-17,35.85698,139.6488,27歳,男,F,1995-08-26,090-0401-4017,自転車,10,1650,2250,1
杉村 慎吾,すぎむら しんご,兵庫県神戸市中央区港島中町4-2-6,35.60467,140.12340,8歳,男,P,2014-11-21,080-3761-4448,自転車,40,1300,2950,5
田岡 久美子,たおか くみこ,東京都千代田区飯田橋2-2-7,35.68917,139.69144,72歳,女,E,1950-12-14,050-7335-9596,徒歩,60,1450,2750,7
徳永 泰行,とくなが やすゆき,愛知県弥富市五明3-5-21,35.44737,139.64211,6歳,男,D,2016-08-24,090-7200-0813,電車,80,1050,2900,2
篠原 高史,しのはら たかふみ,山形県山形市桧町4-1-7,37.902100,139.02373,47歳,男,E,1976-02-06,080-2084-0208,自転車,30,1950,2050,1
椎名 聡子,しいな さとこ,東京都渋谷区神宮前1-3-7,36.69558,137.21168,95歳,女,P,1927-08-23,090-0171-5789,電車,150,1800,2900,7
杉浦 寿子,すぎうら ひさこ,東京都港区赤坂2-3-11セラ705,36.59461,136.62544,24歳,女,J,1999-04-03,090-2505-1509,徒歩,100,1400,2150,5
佐々木 和哉,ささき かずや,静岡県富士市吉原1-2-5,36.06590,136.2217,19歳,男,J,2003-06-28,050-2469-6425,電車,90,1550,2250,6
井川 詩子,いかわ うたこ,神奈川県横浜市鶴見区栄町通1-1-8アインス604,35.66329,138.5688,30歳,女,E,1992-09-29,050-4694-2165,自転車,160,1550,2450,9
藤平 潤也,ふじひら じゅんや,東京都中央区月島1-2-5,36.65189,138.18159,92歳,男,K,1930-07-18,070-4118-2032,バス,60,1600,2400,6
石野 一範,いしの かずのり,北海道北斗市七重浜3-1-18,35.39184,136.722100,33歳,男,O,1990-04-05,070-3778-9470,バス,140,1700,2350,7
森川 直樹,もりかわ なおき,大阪府大阪市都島区東野田町3-1-1207,34.97616,138.38361,38歳,男,H,1985-04-17,090-0867-5932,バス,180,1350,2650,5
吉田 豊,よしだ ゆたか,東京都中央区八丁堀2-4-22,35.18017,136.90675,15歳,男,R,2007-08-13,090-0288-3304,徒歩,130,1250,3000,10
村田 義和,むらた よしかず,東京都荒川区東尾久4-2-8,34.73081,136.50822,50歳,男,N,1973-05-25,050-9345-0647,徒歩,70,1150,2300,2
佐藤 康文,さとう やすふみ,大阪府大阪市中央区北久宝寺町1-3-5,35.00447,135.86852,36歳,男,K,1986-11-12,070-8520-8627,徒歩,50,1800,2200,8
寺田 愛,てらだ あい,大阪府大阪市大正区平尾2-2-4,35.02153,135.75539,6歳,女,H,2016-06-11,050-9844-3396,バス,100,1600,2500,2
岡本 直樹,おかもと なおき,埼玉県川口市安行出羽1-3-8,34.68669,135.52766,64歳,男,J,1958-09-30,070-9780-3997,徒歩,170,1700,2850,10
砂田 理香子,すなだ りかこ,東京都台東区元浅草2-5-4,34.69116,135.18347,66歳,女,F,1956-09-11,050-4115-4411,バス,20,1650,2400,9
吉村 美紀,よしむら みき,東京都新宿区北新宿3-1-9,34.68529,135.83280,30歳,女,F,1993-05-27,090-3615-8163,徒歩,10,1750,2350,6
加藤 浩司,かとう ひろし,大阪府大阪市中央区南船場3-3-1202ベリスタ509,34.22672,135.16778,45歳,男,A,1977-09-03,070-3027-0687,自転車,170,1700,2450,7
岡元 美和,おかもと みわ,東京都目黒区碑文谷4-3-5,35.50377,134.23857,89歳,女,K,1934-02-19,070-3098-9628,自転車,100,1850,2550,8
酒井 真由子,さかい まゆこ,北海道札幌市北区北十五条西1-1-4,35.47269,133.0509,96歳,女,L,1926-12-16,070-1174-0153,バス,130,1150,2400,6
井上 匡,いのうえ ただし,北海道札幌市清田区平岡五条2-2-10,34.66110,133.93560,18歳,男,N,2004-10-28,080-0213-9073,電車,60,1650,2400,3
藤吉 紀恵,ふじよし のりえ,東京都練馬区平和台1-2-9,34.39610,132.45990,89歳,女,D,1934-02-13,050-2028-5246,自転車,70,1300,2900,1
田中 和哉,たなか かずや,青森県弘前市大字城東2-1-3,34.18545,131.47183,66歳,男,N,1956-12-13,050-8453-4191,電車,40,1450,3000,9
望月 喜久子,もちづき きくこ,福岡県福岡市博多区中洲3-1-4リビオ809,34.06563,134.55916,23歳,女,T,2000-02-04,070-5105-6314,バス,60,1650,2800,1
白川 巌,しらかわ いわお,北海道札幌市南区澄川一条2-2-4,34.34097,134.04343,88歳,男,F,1934-11-11,090-0376-5138,徒歩,120,1350,2250,8
黒田 宏明,くろだ ひろあき,大阪府大阪市福島区鷺洲2-5-4,33.8417,132.76614,93歳,男,N,1930-02-20,070-7450-4322,電車,90,1250,2800,5
松浦 哲也,まつうら てつや,東京都杉並区上荻1-1-5,33.55993,133.53174,60歳,男,T,1963-04-28,070-0932-1744,電車,140,2000,2950,9
及川 リサ,おいかわ りさ,神奈川県鎌倉市梶原1-3-17,33.60661,130.41819,64歳,その他・不明,T,1959-04-24,050-3422-7297,電車,180,1200,2550,6
佐藤 正治,さとう せいじ,東京都墨田区江東橋1-2-6,33.24949,130.29877,20歳,男,M,2002-09-19,080-6864-3702,自転車,20,1950,2150,8
岸本 淳一,きしもと じゅんいち,兵庫県宝塚市高司3-3-5,32.74464,129.87320,9歳,男,L,2013-07-12,050-9935-2309,電車,20,1950,2350,9
松永 清香,まつなが さやか,北海道札幌市手稲区前田四条3-4-19,32.78980,130.74111,58歳,女,A,1964-09-14,070-7663-4721,バス,50,1200,2850,5
福田 あさ子,ふくだ あさこ,兵庫県尼崎市東園田町3-5-7,33.23824,131.6129,21歳,女,P,2001-10-25,080-7138-3834,徒歩,10,1600,2550,6
室屋 智弘,むろや としひろ,千葉県市川市新田3-2-20セイワパレス701,31.91112,131.42313,89歳,男,C,1934-02-25,070-3569-9325,徒歩,80,1850,2750,1
石川 絵里子,いしかわ えりこ,福岡県大牟田市大正町1-5-1005,31.5601,130.55877,64歳,女,E,1959-02-04,070-0014-3320,電車,100,1600,2150,5
大野 隆明,おおの たかあき,東京都文京区千石1-4-20,26.21222,127.68140,10歳,男,J,2012-06-18,050-4102-2381,徒歩,100,1400,2150,4
中川 正昭,なかがわ まさあき,東京都世田谷区太子堂1-3-9,34.97618,138.38324,2歳,男,I,2021-01-12,080-7145-8658,電車,180,1900,2900,5
横田 直人,よこた なおと,福井県福井市文京3-4-16,35.18020,136.90682,12歳,男,S,2011-04-01,070-4669-4876,バス,40,1150,2850,9
石 詩乃,いし しの,愛知県日進市香久山1-2-4,34.73025,136.50832,1歳,女,Q,2022-04-29,080-7440-7657,電車,70,1800,2800,2
麓 久乃,ふもと ひさの,茨城県牛久市上柏田2-3-8,35.0043,135.86815,37歳,女,Q,1985-06-15,090-7797-7702,徒歩,70,2000,2900,3
露口 隆明,つゆぐち たかあき,愛知県名古屋市千種区今池2-2-17,35.02129,135.7558,38歳,男,N,1984-07-29,050-7540-7450,電車,40,1900,2150,9
和田 充,わだ みつる,新潟県新潟市中央区沼垂東4-2-8プラウドシティ116,34.68647,135.5271,47歳,男,B,1975-09-25,080-5008-2589,バス,160,1800,2950,1
押田 貴史,おしだ たかし,福岡県春日市春日原南町1-3-8,34.69140,135.18359,40歳,男,B,1982-08-24,080-5948-8364,バス,180,1500,2100,6
佐多 一茂,さた かずしげ,東京都千代田区飯田橋2-3-709,34.68555,135.83279,24歳,男,T,1999-03-13,070-8828-5086,自転車,120,1050,2200,4
植田 弘幸,うえだ ひろゆき,東京都町田市南成瀬1-1-801オリエント615,34.22644,135.16773,32歳,男,N,1990-09-29,080-5331-4719,電車,100,1300,2900,9
山下 ちひろ,やました ちひろ,東京都港区虎ノ門1-5-102,35.50373,134.23896,96歳,女,P,1927-03-24,090-9772-5674,バス,80,1800,2050,9
滝口 真史,たきぐち まさし,大阪府大阪市北区西天満3-3-7,35.47219,133.05078,91歳,男,G,1932-01-21,070-3705-8225,自転車,150,1400,2600,2
三好 淳,みよし じゅん,東京都中野区江古田3-2-6,34.6616,133.9352,5歳,男,L,2017-12-16,070-4833-9525,徒歩,180,1050,2700,3
山川 力,やまかわ つとむ,兵庫県神戸市長田区菅原通2-2-6,34.39626,132.45945,39歳,その他・不明,J,1983-06-26,070-9169-3488,電車,90,1400,2450,6
岡田 千絵美,おかだ ちえみ,東京都中央区八丁堀3-2-8,34.18537,131.47124,75歳,その他・不明,K,1947-11-15,090-7537-5472,自転車,100,1950,2250,4
吉田 さやか,よしだ さやか,神奈川県横浜市旭区笹野台1-3-3,34.06569,134.55951,87歳,女,D,1935-07-02,090-5414-2171,徒歩,140,1250,2750,3
近藤 修弘,こんどう のぶひろ,大阪府大阪市中央区南船場3-2-11,34.34081,134.04364,43歳,男,T,1980-04-14,070-2382-7874,バス,110,1050,3000,8
平林 正典,ひらばやし まさのり,東京都小金井市緑町4-3-8,33.8419,132.76648,23歳,男,G,2000-04-07,070-5762-0390,自転車,90,1400,2250,7
外薗 唯,ほかぞの ゆい,大阪府豊中市緑丘2-3-5,33.55966,133.53169,45歳,女,L,1977-11-17,070-5919-6425,自転車,60,1450,2550,8
塩塚 祐子,しおつか ゆうこ,愛知県名古屋市昭和区広路通2-3-5,33.60698,130.41831,12歳,その他・不明,F,2010-06-26,050-3897-1778,電車,120,1850,2100,8
永田 絵理奈,ながた えりな,山梨県甲府市上石田2-2-22,33.24943,130.29860,43歳,女,A,1980-03-21,080-4864-0647,自転車,30,1200,2400,8
村田 宏晃,むらた ひろあき,宮城県名取市閖上1-2-13,32.74423,129.87396,57歳,男,E,1966-05-02,050-3607-2711,電車,110,1800,2800,2
小西 清志,こにし きよし,北海道札幌市北区北二十五条西1-3-309サンクレイドル201,32.78928,130.74160,94歳,男,G,1929-05-16,080-3433-2458,電車,140,1600,2300,8
本田 まい子,ほんだ まいこ,東京都世田谷区上馬2-2-12ジョイフル809,33.23822,131.61231,34歳,女,O,1989-01-08,090-5837-3346,バス,180,1750,2500,8
人見 勇一,ひとみ ゆういち,神奈川県横浜市南区別所2-3-19ダイナシティ616,31.91195,131.4237,92歳,男,H,1930-07-04,090-1405-3756,徒歩,130,1400,2550,4
菊地 直樹,きくち なおき,東京都町田市つくし野3-3-9,31.56053,130.55857,52歳,その他・不明,F,1971-06-05,090-4506-6965,自転車,50,1350,2800,4
藤井 和則,ふじい かずのり,大阪府富田林市若松町1-4-22,26.21265,127.68189,93歳,男,A,1929-12-22,050-5049-0729,自転車,80,1650,2500,8
石井 智子,いしい ともこ,東京都江戸川区一之江3-5-1006,34.97646,138.38377,14歳,女,H,2008-09-12,090-9580-4640,電車,160,1650,2900,1
阿比留 一博,あびる かずひろ,福岡県大牟田市大正町1-5-1005,35.18041,136.90692,55歳,男,I,1968-03-18,090-7363-7704,徒歩,140,1900,2050,2
和田 勝,わだ まさる,東京都練馬区関町南1-2-6,34.73055,136.50830,47歳,男,J,1976-05-24,080-1882-9456,電車,50,1250,2200,10
小川 秀明,おがわ ひであき,東京都北区赤羽西1-4-14,35.00444,135.86831,39歳,男,F,1983-08-08,070-1023-1331,電車,40,1650,2950,9
安池 孝,やすいけ たかし,東京都中央区銀座2-2-7キングマンション708,35.02179,135.75592,95歳,男,D,1928-01-02,080-7289-3074,徒歩,70,1850,2050,6
高橋 みどり,たかはし みどり,兵庫県尼崎市杭瀬南新町1-3-3,34.68675,135.52774,44歳,女,E,1978-10-11,070-2162-6021,徒歩,140,1150,2750,8
堀内 修一,ほりうち しゅういち,兵庫県神戸市中央区北長狭通2-3-10シティタワー809,34.69115,135.18369,77歳,男,G,1945-09-27,070-1093-5617,電車,10,1400,2100,6
中村 江里,なかむら えり,福岡県福岡市早良区飯倉1-5-21,34.68528,135.83270,31歳,女,P,1991-12-03,090-1011-3036,電車,70,1650,2200,9
南 孝,みなみ たかし,愛知県一宮市三ツ井2-2-506,34.22626,135.16749,76歳,男,L,1946-12-06,050-7881-5106,徒歩,90,1300,2650,8
小池 博之,こいけ ひろゆき,東京都杉並区南荻窪1-3-9,35.50387,134.23822,86歳,男,L,1937-03-20,080-0838-4654,バス,10,1750,2400,4
吉田 和幸,よしだ かずゆき,大阪府豊中市春日町1-5-7,35.47270,133.05036,100歳,その他・不明,F,1922-07-26,070-0594-7753,自転車,100,1600,2800,10
金田 豊子,かねだ とよこ,千葉県市川市柏井町1-1-9グランコート715,34.66132,133.9353,0歳,女,B,2023-04-19,080-3108-1464,徒歩,140,1350,2200,8
杉崎 美紀,すぎさき みき,東京都江東区北砂3-2-7ネバーランド303,34.39666,132.45961,18歳,女,T,2004-10-21,050-6310-1955,徒歩,140,1300,2850,8
吉江 志郎,よしえ しろう,大阪府東大阪市日下町1-5-806,34.18549,131.47150,99歳,男,L,1924-03-03,070-8376-1968,バス,40,1850,2650,5
岡田 教子,おかだ みちこ,大阪府大阪市西淀川区大和田4-3-3,34.06518,134.55917,29歳,女,N,1993-07-23,090-8760-2085,自転車,130,1200,2550,5
亀井 亜里沙,かめい ありさ,兵庫県神戸市灘区篠原北町1-3-8ロイヤルハイツ815,34.34029,134.04367,59歳,女,C,1963-09-25,080-5813-8011,バス,30,1800,2300,8
疋田 貴大,ひきた たかひろ,福岡県福岡市南区長丘1-1-8,33.84199,132.76628,72歳,男,P,1950-07-15,080-4597-4643,電車,30,1550,2700,8
上野 昭子,うえの あきこ,新潟県新潟市東区江南1-2-1005,33.55980,133.53117,84歳,女,K,1939-02-11,080-4593-1712,電車,80,1500,2350,7
伊勢 工,いせ こう,埼玉県さいたま市中央区本町東2-5-306,33.60630,130.41856,63歳,男,Q,1959-09-28,050-2251-9056,電車,130,1250,2250,3
田中 章,たなか あきら,北海道札幌市東区伏古八条2-5-906,33.2492,130.29846,24歳,男,I,1999-05-10,080-3557-1330,バス,10,1650,2900,2
小池 敦子,こいけ あつこ,北海道帯広市西二十三条南2-1-3,32.7441,129.87327,91歳,女,Q,1931-07-17,070-3081-8374,バス,50,1600,2750,2
染谷 亜紀子,そめや あきこ,東京都世田谷区太子堂1-3-9,32.78925,130.74176,95歳,女,B,1927-09-10,080-6685-0188,徒歩,50,1150,2450,3
宮崎 文,みやざき ふみ,千葉県習志野市津田沼4-1-8,33.23813,131.61212,24歳,その他・不明,N,1999-04-16,090-8313-4891,電車,90,1400,2700,1
柴田 博文,しばた ひろふみ,東京都台東区千束1-1-1001,31.91177,131.42328,2歳,その他・不明,K,2020-12-19,050-7161-1137,電車,170,1550,2150,3
横溝 周作,よこみぞ しゅうさく,北海道札幌市豊平区美園二条3-3-6,31.56039,130.55873,77歳,男,R,1946-01-02,090-2006-4492,バス,30,1450,2850,7
佐々木 拓也,ささき たくや,東京都中央区築地3-3-21,26.21288,127.68159,98歳,男,J,1924-06-19,080-8200-3892,自転車,70,1050,2900,2
鈴木 みき,すずき みき,兵庫県伊丹市西台3-3-12,34.97686,138.3833,36歳,女,F,1986-10-20,090-9846-6505,徒歩,160,1100,2600,5
加茂 崇,かも たかし,北海道札幌市西区八軒三条東3-2-10,35.18077,136.90696,81歳,男,H,1941-08-07,070-7694-6516,徒歩,10,1600,2650,2
村上 歩,むらかみ あゆみ,大阪府高槻市前島2-1-22,34.73036,136.50863,3歳,男,K,2019-11-08,090-5946-3142,バス,50,1950,2050,2
松尾 雅之,まつお まさゆき,千葉県市川市菅野2-2-11,35.00449,135.86821,50歳,男,M,1973-02-18,080-4510-0752,電車,120,1750,2200,6
北村 徹,きたむら とおる,千葉県市川市田尻1-2-11,35.02138,135.75547,46歳,男,R,1977-04-28,070-5326-9329,電車,110,1550,2550,2
南口 恵子,みなみぐち けいこ,東京都足立区青井1-3-8,34.68631,135.52774,86歳,その他・不明,O,1936-07-28,050-9210-9412,電車,130,1300,2500,6
三好 亮,みよし りょう,埼玉県さいたま市浦和区岸町1-3-20,34.69198,135.18355,60歳,男,G,1963-05-07,080-1460-5837,自転車,110,1550,2800,2
宮里 栄,みやざと さかえ,神奈川県茅ヶ崎市香川3-3-8パインクレスト202,34.68542,135.83243,8歳,男,E,2015-02-24,070-2646-0220,徒歩,110,1600,2700,2
近藤 剛士,こんどう つよし,大阪府大阪市平野区平野東2-2-4,34.22675,135.16736,74歳,男,H,1948-07-01,050-3685-1593,徒歩,40,1250,2350,3
奥野 宣幸,おくの のぶゆき,北海道札幌市中央区北二条西2-1-20プロパレス415,35.50324,134.2386,7歳,男,C,2015-06-22,070-1762-4730,バス,90,1200,2300,7
國吉 裕子,くによし ゆうこ,大阪府大阪市城東区成育2-5-17,35.47269,133.05027,11歳,女,B,2011-10-13,090-6310-6411,徒歩,50,2000,2150,5
佐々木 政司,ささき まさし,東京都練馬区向山3-2-102,34.66134,133.93581,55歳,男,T,1968-02-10,070-0655-0037,バス,60,1650,2300,3
日野 由希子,ひの ゆきこ,東京都港区西麻布3-3-11スカイマンション616,34.39678,132.4591,53歳,女,A,1970-04-19,070-2785-6981,自転車,170,1550,2400,1
簗田 大輔,やなだ だいすけ,東京都中野区中野4-2-9,34.18519,131.47179,52歳,男,H,1970-08-24,080-1873-5127,自転車,110,1450,2300,9
寺本 弘康,てらもと ひろやす,東京都板橋区舟渡2-3-407アンビエント514,34.0655,134.5598,39歳,男,Q,1984-02-11,070-6991-9025,自転車,90,1150,2350,8
平本 一成,ひらもと いっせい,東京都中野区江古田1-2-20,34.34043,134.04394,20歳,男,G,2002-08-19,050-9681-9219,バス,110,1650,2400,6
藤枝 優太,ふじえだ ゆうた,東京都中野区本町1-2-17,33.84131,132.7668,98歳,その他・不明,T,1924-11-07,070-1423-9739,徒歩,150,1750,2650,6
池端 由美子,いけはた ゆみこ,大阪府茨木市上穂積3-5-9,33.55917,133.53179,39歳,女,I,1984-04-05,050-5882-8608,電車,120,1850,2700,2
田中 博,たなか ひろし,埼玉県志木市上宗岡1-3-505,33.6069,130.41869,48歳,男,O,1975-02-23,070-7361-8266,電車,150,1650,2350,4
高山 浩司,たかやま ひろし,東京都新宿区四谷3-1-8ハーモニーコート116,33.24948,130.2982,45歳,男,H,1978-04-03,090-3541-2538,バス,140,1150,2250,9
平岡 勇,ひらおか ゆう,東京都港区赤坂1-2-7シティテラス210,32.7448,129.87349,54歳,男,E,1969-03-30,050-5356-1930,バス,60,1700,2500,5
島野 知実,しまの ともみ,東京都江東区亀戸1-2-13,32.789100,130.74188,81歳,女,C,1942-05-02,070-2070-5004,徒歩,10,1200,2250,7
池田 裕幸,いけだ ひろゆき,佐賀県鳥栖市蔵上1-3-1106ルネ806,33.2388,131.61224,50歳,男,S,1972-11-07,080-5716-3849,自転車,20,1150,2650,7
川崎 香,かわさき かおり,大阪府泉佐野市羽倉崎2-3-16,31.91191,131.42341,80歳,女,I,1942-08-22,050-2220-7554,徒歩,60,1950,2150,9
奥本 萌,おくもと もえ,岩手県釜石市大平町2-2-5,31.56027,130.55834,72歳,女,F,1950-06-26,050-0708-9731,徒歩,40,2000,2200,2
前川 陽介,まえかわ ようすけ,新潟県上越市仲町4-3-7,26.21279,127.68131,34歳,男,L,1988-10-07,050-5243-7975,自転車,100,1050,2950,2
清水 由香,しみず ゆか,東京都江東区東陽2-2-7,43.06422,141.34678,6歳,女,P,2017-05-21,050-6005-5582,電車,100,1850,2250,2
大石 英敏,おおいし ひでとし,東京都杉並区南荻窪3-4-18,40.82476,140.74375,66歳,男,R,1956-09-08,050-6189-8375,電車,170,1950,2300,7
溝口 祐司,みぞぐち ゆうじ,大阪府藤井寺市小山4-2-10ハイツオークラ208,39.70362,141.15246,31歳,男,D,1991-12-07,080-5618-5906,電車,150,1200,2600,3
小笠原 綾子,おがさわら あやこ,愛媛県西予市宇和町卯之町3-4-13,38.26853,140.87182,20歳,女,M,2002-11-16,070-4703-8989,徒歩,50,1750,2100,8
栗原 宏文,くりはら ひろふみ,東京都台東区浅草橋1-3-17,39.71886,140.10248,50歳,男,R,1973-04-29,090-0333-6904,自転車,130,1950,2100,8
仁田 勇二,にった ゆうじ,愛知県名古屋市中川区八神町3-1-3,38.24033,140.36365,9歳,男,N,2014-05-16,050-2933-6309,自転車,170,1300,2200,3
赤穂 純平,あこう じゅんぺい,福井県福井市二の宮2-4-15,37.75178,140.46734,86歳,男,M,1937-04-10,080-8682-1447,徒歩,20,1950,2150,7
宮本 隆昭,みやもと たかあき,東京都練馬区土支田3-1-105,36.34173,140.4463,15歳,その他・不明,E,2007-09-07,070-8442-1813,バス,30,1150,2950,2
高瀬 栄一,たかせ えいいち,福岡県福岡市博多区板付1-3-8,36.5652,139.88350,26歳,男,J,1997-01-26,050-6853-6568,徒歩,80,1400,2300,9
原口 聖也,はらぐち せいや,東京都江東区豊洲3-3-5,36.39184,139.06052,47歳,その他・不明,G,1976-04-19,080-1692-2148,自転車,140,1150,2700,8
大門 亜矢子,だいもん あやこ,東京都豊島区南長崎2-1-901,35.85670,139.64850,96歳,女,F,1926-09-16,080-7151-2654,自転車,50,1350,2700,8
神吉 広,かんき ひろひ,大阪府大阪市中央区久太郎町2-5-21,35.60456,140.12399,55歳,男,N,1968-02-07,050-0410-4475,徒歩,40,1750,2800,1
浅井 祥平,あさい しょうへい,大阪府大阪市平野区流町3-4-302,35.68990,139.69166,77歳,男,P,1945-11-24,090-1379-5950,自転車,90,1550,2850,1
新井 理代,あらい りよ,北海道室蘭市高砂町1-3-5,35.4475,139.64231,50歳,女,J,1973-05-31,090-6753-7766,電車,70,1950,2950,2
高橋 徹郎,たかはし てつろう,神奈川県座間市入谷2-2-3,37.90277,139.02341,69歳,男,E,1954-04-05,080-9521-9746,徒歩,180,1050,2850,5
前島 静恵,まえじま しずえ,埼玉県蕨市中央3-5-907,36.69559,137.21154,100歳,女,T,1922-08-17,080-1384-1070,バス,20,1900,2350,4
安田 千寛,やすだ ちひろ,東京都港区南青山1-1-508,36.59430,136.62564,7歳,女,S,2016-01-07,050-9533-9229,徒歩,40,1550,2550,8
田辺 歩,たなべ あゆみ,愛媛県松山市今在家2-1-5,36.06545,136.22176,46歳,女,H,1976-06-28,070-3704-3359,徒歩,180,1250,3000,7
大橋 亜以子,おおはし あいこ,愛知県名古屋市南区呼続1-5-303ネオダイキョー513,35.66332,138.56892,30歳,女,R,1992-08-11,050-8853-7751,徒歩,140,2000,2100,5
佐藤 剛一,さとう こういち,東京都杉並区和泉1-1-20ロジュマン602,36.65197,138.18146,73歳,男,D,1949-11-22,080-1485-6878,バス,180,1300,2100,1
中井 由紀,なかい ゆき,福岡県那珂川市道善1-1-7,35.39198,136.72273,3歳,女,Q,2019-12-12,070-9260-5417,徒歩,10,1450,2400,6
田中 チエ,たなか ちえ,東京都中野区鷺宮3-5-801,34.97624,138.38369,12歳,女,C,2010-09-24,090-8743-0912,バス,90,1850,2650,10
安本 正則,やすもと まさのり,愛知県名古屋市中村区名駅4-1-10,35.18040,136.90680,91歳,男,K,1932-01-28,050-6708-7649,電車,170,1750,2550,10
吉田 雅幸,よしだ まさゆき,大阪府大阪市鶴見区浜1-3-10アーバンビュー508,34.73039,136.50868,29歳,男,A,1993-07-07,070-6475-3255,徒歩,30,2000,2050,9
榎本 健太,えのもと けんた,大阪府和泉市伏屋町3-1-3,35.00419,135.86882,34歳,男,L,1989-01-09,070-9312-5056,電車,130,1300,2700,6
島根 憲和,しまね のりかず,大阪府大阪市中央区平野町1-1-6ビューネ707,35.02123,135.75526,61歳,男,N,1961-10-21,070-5586-8906,電車,180,1850,2600,2
峰村 直子,みねむら なおこ,東京都中野区大和町3-5-4,34.68644,135.5279,51歳,その他・不明,D,1971-07-31,080-8366-5496,電車,50,1200,2800,3
加来 真司,かく しんじ,岩手県盛岡市上堂1-1-202エスト103,34.69139,135.18389,49歳,男,H,1974-04-25,090-4416-2923,バス,140,1100,2950,9
大澤 雅和,おおさわ まさかず,熊本県熊本市西区島崎2-4-13,34.68581,135.83267,81歳,男,M,1941-08-28,080-2792-4561,電車,170,1850,2650,6
宮本 優佳,みやもと ゆか,福岡県福岡市東区筥松3-2-108,34.22628,135.16744,4歳,女,A,2019-02-09,080-5642-2563,電車,50,1250,2450,9
藤田 鮎美,ふじた あゆみ,東京都世田谷区弦巻3-4-509,35.50391,134.23873,63歳,女,E,1960-04-17,080-4997-4004,自転車,140,1950,2400,6
酒井 真一,さかい しんいち,大阪府大阪市西淀川区大和田3-3-13,35.47241,133.05081,54歳,男,D,1968-08-03,070-3882-3783,自転車,160,1150,2550,8
神村 幸枝,かみむら ゆきえ,東京都練馬区関町南3-1-207,34.66169,133.93526,87歳,女,P,1936-01-25,070-4637-1666,自転車,40,1650,2200,6
淺井 義教,あさい よしのり,東京都足立区花畑2-4-8サンワプラザ310,34.3964,132.45921,12歳,男,P,2011-05-13,080-7040-1266,徒歩,90,1600,2800,9
清水 秀輝,しみず ひでき,大阪府大阪市東成区中本4-2-4,34.18593,131.4710,54歳,男,D,1969-02-18,080-7427-7981,自転車,150,1250,2650,8
水野 学,みずの まなぶ,沖縄県那覇市おもろまち4-2-7,34.06520,134.55982,50歳,男,S,1972-07-22,050-7154-6418,バス,70,1900,2400,7
佐々木 邦彦,ささき くにひこ,宮崎県宮崎市江南3-2-8,34.34026,134.04328,3歳,男,F,2019-08-25,090-9216-6677,自転車,100,1250,2750,10
小久保 詩織,こくぼ しおり,東京都目黒区目黒3-4-19,33.84195,132.76656,60歳,女,E,1962-09-26,090-8338-2627,自転車,30,1350,2850,6
鈴木 渚,すずき なぎさ,大阪府箕面市瀬川2-3-9,33.5595,133.53115,9歳,女,E,2014-04-01,090-5405-2067,徒歩,130,1600,2800,10
玉井 泰則,たまい よしのり,大阪府大阪市西区九条南2-2-1109,33.60622,130.41811,35歳,男,I,1988-04-18,080-4677-8839,自転車,150,1100,2200,8
高久 美幸,たかく みゆき,東京都千代田区麹町1-3-8,33.24960,130.29897,78歳,その他・不明,G,1945-01-22,050-1798-5457,電車,100,1550,2200,1
岡本 彩乃,おかもと あやの,大阪府大阪市北区西天満1-3-20サンライズ406,32.74433,129.87338,73歳,女,G,1949-06-23,070-2408-1870,自転車,20,1500,2450,5
中村 由佳,なかむら ゆか,東京都足立区大谷田1-3-21,32.78968,130.74175,45歳,女,L,1978-05-30,080-9329-0369,自転車,180,1550,2400,1
蓮尾 綾香,はすお あやか,東京都豊島区池袋本町2-3-5,33.23864,131.61280,25歳,女,C,1998-05-06,090-8586-9351,徒歩,60,1800,3000,10
田村 祐香,たむら ゆか,神奈川県横浜市鶴見区岸谷3-1-9,31.91155,131.42347,21歳,女,O,2001-10-29,050-0038-7530,自転車,40,1950,2350,1
白鳥 徹,しらとり とおる,福岡県福岡市西区姪の浜2-4-10,31.56078,130.55847,65歳,男,S,1957-10-14,070-6477-2263,電車,100,1350,2900,10
坂井 玲子,さかい れいこ,福井県越前市芝原1-3-14,26.21279,127.68118,88歳,女,C,1934-07-01,080-9324-4604,電車,70,1250,2800,10
山本 まゆみ,やまもと まゆみ,大阪府東大阪市加納1-3-9,34.9763,138.38325,89歳,女,N,1933-06-10,050-2901-4614,バス,180,1550,2350,4
金子 絢子,かねこ じゅんこ,福岡県福岡市早良区干隈4-3-9,35.18079,136.90625,13歳,女,F,2009-09-15,070-3052-9859,バス,30,1950,2600,8
阿部 依子,あべ よりこ,埼玉県羽生市中央3-2-5グローバル613,34.73094,136.50829,19歳,女,E,2003-10-02,070-5596-5059,自転車,160,1250,2400,8
樋口 晋一郎,ひぐち しんいちろう,岩手県盛岡市上田2-2-12,35.00471,135.86896,27歳,男,S,1995-11-07,090-0700-7113,自転車,110,2000,2250,3
林 光,はやし ひかる,東京都港区港南2-4-21,35.02139,135.75556,97歳,男,O,1926-02-07,080-6470-4048,バス,90,1700,2550,7
石井 幸雄,いしい ゆきお,埼玉県本庄市日の出3-3-7,34.68640,135.52730,4歳,男,M,2019-01-29,090-1776-0550,電車,130,1200,2300,10
川村 順子,かわむら じゅんこ,東京都中野区東中野3-5-9スカイマンション106,34.69132,135.1835,5歳,その他・不明,D,2017-11-06,080-9215-4037,自転車,60,1150,2800,3
千葉 晴貴,ちば はるき,広島県安芸郡府中町瀬戸ハイム2-4-20,34.68534,135.83236,27歳,男,J,1995-11-19,070-4144-1651,バス,140,1750,2750,7
田中 有希,たなか ゆき,東京都墨田区緑4-1-7,34.22644,135.1670,48歳,女,E,1974-09-04,080-8090-2925,自転車,140,1500,2150,2
大津 華恵,おおつ はなえ,東京都千代田区九段南3-1-7,35.50345,134.23882,57歳,女,G,1965-09-08,090-8449-4983,電車,160,2000,2250,6
立石 公二,たていし こうじ,千葉県柏市松葉町1-1-6,35.47238,133.05045,11歳,男,S,2011-08-16,070-3015-4711,徒歩,70,1400,2350,6
岩井 大輔,いわい だいすけ,東京都港区高輪3-5-8,34.66121,133.93542,36歳,男,E,1986-07-27,070-3746-8303,徒歩,30,1900,2100,7
横山 公康,よこやま きみやす,東京都豊島区池袋1-2-14,34.39673,132.45996,41歳,男,L,1981-07-27,070-0995-8489,徒歩,100,1050,2550,8
星野 七重,ほしの ななえ,栃木県宇都宮市インターパーク3-1-508,34.1858,131.47199,71歳,女,I,1951-06-30,080-2230-0501,電車,130,1500,2650,5
辻岡 亮太,つじおか りょうた,兵庫県尼崎市東園田町4-3-3,34.06540,134.55997,41歳,男,E,1981-06-15,080-4872-0551,バス,130,1500,2750,5
西尾 浩一,にしお こういち,兵庫県姫路市田寺東1-5-10,34.34031,134.0432,98歳,男,S,1924-06-28,080-2926-6050,バス,150,1950,2950,8
金沢 太郎,かなざわ たろう,東京都港区芝2-3-22ヴィークコート716,33.84138,132.76659,4歳,男,F,2018-11-29,050-9694-4979,徒歩,140,1900,2250,6
舘野 歩,たての あゆみ,兵庫県神戸市西区北別府3-2-4,33.55971,133.53184,78歳,女,E,1945-03-13,070-0364-2430,電車,100,1650,2250,9
花木 和久,はなき かずひさ,福岡県福岡市中央区天神3-4-8,33.60652,130.4187,95歳,男,I,1928-05-06,090-2093-9861,自転車,100,1200,2950,7
後藤 遼,ごとう りょう,新潟県長岡市四郎丸1-4-6,33.24983,130.29842,59歳,男,L,1964-03-04,080-2670-2201,電車,40,1850,2800,1
鈴木 秀憲,すずき ひでのり,東京都杉並区阿佐谷北1-3-10,32.74433,129.87371,17歳,その他・不明,T,2006-05-10,070-1769-7019,自転車,130,1550,2400,7
玉木 浩幸,たまき ひろゆき,愛知県常滑市本郷町3-2-904,32.78968,130.74148,17歳,男,K,2006-01-19,090-7643-1771,バス,50,1700,2950,3
萬代 ちづる,ばんだい ちづる,北海道札幌市中央区北九条西1-1-6,33.23838,131.61261,93歳,女,A,1929-08-24,080-8415-7775,バス,40,1500,3000,5
三浦 哲,みうら さとし,東京都品川区東品川3-1-908,31.91168,131.42351,2歳,男,Q,2020-08-28,080-6747-3272,徒歩,120,1800,2400,9
豊永 和宏,とよなが かずひろ,東京都品川区東大井1-2-9,31.56079,130.55870,9歳,男,R,2013-12-05,070-1721-7234,電車,130,1350,2250,4
片山 マユミ,かたやま まゆみ,北海道小樽市奥沢1-2-10エミネンス209,26.2128,127.68167,8歳,女,M,2015-02-05,070-5636-4484,徒歩,160,1050,2150,9
杉田 弘樹,すぎた ひろき,福岡県大野城市大城4-2-6,34.97612,138.38378,34歳,男,S,1989-01-10,050-5290-8798,自転車,130,1600,2800,7
及川 洋一,おいかわ よういち,東京都港区六本木3-3-4パークハイム314,35.18065,136.90652,2歳,男,S,2020-11-13,080-8949-2989,電車,100,1250,2600,2
山下 一郎,やました いちろう,東京都中央区勝どき3-4-4,34.73018,136.50883,20歳,男,H,2002-09-06,090-0998-1036,電車,170,1450,2850,3
車 隆博,くるま たかひろ,東京都日野市豊田3-3-7コスモ806,35.00429,135.86836,90歳,男,C,1933-05-12,050-0366-6880,徒歩,50,1950,2200,3
渡邉 かよこ,わたなべ かよこ,東京都立川市上砂町2-2-6,35.02111,135.75558,30歳,女,P,1993-02-21,090-6141-8686,電車,120,1250,2350,4
岩切 和馬,いわきり かずま,神奈川県横浜市港南区芹が谷3-1-405,34.6862,135.5276,48歳,男,K,1975-03-09,070-5910-7123,自転車,140,1400,2350,4
松山 翼,まつやま つばさ,東京都世田谷区太子堂3-3-22,34.69123,135.18357,42歳,男,O,1981-05-10,090-8827-0110,バス,180,1400,2900,4
芳賀 泰佑,はが たいすけ,兵庫県川西市緑台3-2-6,34.68518,135.83231,72歳,男,N,1950-07-01,070-7264-8981,バス,60,1250,2650,5
石川 早苗,いしかわ さなえ,東京都墨田区石原4-2-7,34.22682,135.16726,60歳,女,P,1962-10-09,070-1692-4749,徒歩,80,1350,2450,4
井上 賢一郎,いのうえ けんいちろう,東京都世田谷区駒沢3-5-1104,35.50362,134.23883,27歳,男,D,1996-04-06,070-1875-4644,電車,60,1450,2900,2
本多 豪,ほんだ たけし,鹿児島県鹿児島市谷山中央4-3-5,35.47215,133.05044,19歳,男,O,2003-12-18,050-3464-7529,徒歩,160,1450,2450,3
松本 祐二,まつもと ゆうじ,千葉県市川市八幡1-3-5,34.66170,133.93523,79歳,男,E,1943-10-01,070-4593-3235,電車,110,1450,2500,10
清水 謙司,しみず けんじ,東京都中央区日本橋本石町4-2-10,34.39615,132.45948,67歳,男,Q,1955-08-19,090-1252-8154,バス,100,1300,2700,7
田中 徹,たなか とおる,東京都世田谷区池尻3-1-6,34.18593,131.47149,44歳,男,B,1978-09-24,050-0219-7474,電車,50,1500,2450,2
